City_ID,City,Country,Lat,Lng,Max Temp,Humidity,Cloudiness,Wind Speed,Current Description
0,Rikitea,PF,-23.1203,-134.9692,78.22,74,100,17.02,Clear sky
1,Avarua,CK,-21.2078,-159.775,82.45,78,20,19.57,broken clouds
2,Bluff,NZ,-46.6,168.3333,52.81,84,100,5.46,Clear sky
3,East London,ZA,-33.0153,27.9116,67.14,82,0,10.36,Clear sky
4,Puerto Ayora,EC,-0.7393,-90.3518,75.54,93,7,4,few clouds
5,Morvi,IN,22.8167,70.8333,63.61,32,0,4.79,haze
6,Busselton,AU,-33.65,115.3333,101.05,33,49,14.79,Clear sky
7,Castro,BR,-24.7911,-50.0119,64.17,98,100,4.05,Clear sky
8,Innisfail,AU,-17.5333,146.0333,79.48,91,100,1.14,heavy intensity rain
9,Micheweni,TZ,-4.9667,39.8333,80.19,79,99,9.08,Clear sky
10,Zhezkazgan,KZ,47.8043,67.7144,-0.42,78,0,13.42,Clear sky
11,Padang,ID,-0.9492,100.3543,84.25,72,84,3.91,broken clouds
12,Kysyl-Syr,RU,63.8986,122.7617,-17.09,96,63,4.47,Clear sky
13,Hilo,US,19.7297,-155.09,74.93,81,100,9.22,Clear sky
14,Mataura,NZ,-46.1927,168.8643,52.48,99,100,2.26,few clouds
15,Lucapa,AO,-8.4192,20.7447,62.6,99,100,2.35,haze
16,Diego De Almagro,CL,-26.3667,-70.05,62.71,41,0,0.25,Clear sky
17,Yellowknife,CA,62.456,-114.3525,-28.44,75,0,5.75,Clear sky
18,Nagato,JP,34.3833,131.2,44.55,52,6,18.23,heavy intensity rain
19,Beloha,MG,-25.1667,45.05,75.33,80,5,11.52,Clear sky
20,Constitucion,CL,-35.3333,-72.4167,58.3,93,55,5.82,Clear sky
21,Ushuaia,AR,-54.8,-68.3,42.46,70,75,18.41,broken clouds
22,Axim,GH,4.8699,-2.2405,77.83,84,1,4,Clear sky
23,Rio Grande,BR,-32.035,-52.0986,70.95,86,100,8.66,Clear sky
24,Jatiroto,ID,-7.8833,111.1167,83.97,65,100,3.62,few clouds
25,Iralaya,HN,15,-83.2333,76.84,86,0,7.92,haze
26,Tiksi,RU,71.6872,128.8694,-11.81,100,100,6.02,Clear sky
27,Tasiilaq,GL,65.6145,-37.6368,12.36,58,83,5.75,Clear sky
28,Along,IN,28.1667,94.7667,64.6,48,29,1.05,heavy intensity rain
29,Lermontovka,RU,47.1453,134.3383,4.19,82,91,5.26,Clear sky
30,Yerbogachen,RU,61.2767,108.0108,9.93,94,100,5.03,Clear sky
31,Hermanus,ZA,-34.4187,19.2345,60.91,72,93,9.89,broken clouds
32,Mandera,KE,3.9366,41.867,76.46,36,88,7.16,Clear sky
33,Vaini,TO,-21.2,-175.2,86.16,79,75,10.36,Clear sky
34,Butaritari,KI,3.0707,172.7902,81.79,77,17,15.19,few clouds
35,Marystown,CA,47.1666,-55.1483,39.85,100,100,7,haze
36,Cayenne,GF,4.9333,-52.3333,79.09,90,75,1.01,Clear sky
37,Mahebourg,MU,-20.4081,57.7,81.25,94,75,20.71,Clear sky
38,Hofn,IS,64.2539,-15.2082,29.64,55,100,18.48,heavy intensity rain
39,Katsuura,JP,35.1333,140.3,46.42,74,100,9.95,Clear sky
40,Hobart,AU,-42.8794,147.3294,75.02,47,20,1.99,Clear sky
41,Seoul,KR,37.5683,126.9778,31.51,34,0,10.36,broken clouds
42,Hirado,JP,33.3597,129.5531,47.55,53,4,17.52,Clear sky
43,Montepuez,MZ,-13.1256,38.9997,69.71,95,100,3.47,Clear sky
44,Victoria,HK,22.2855,114.1577,62.26,73,63,1.99,few clouds
45,New Norfolk,AU,-42.7826,147.0587,74.66,35,3,3,haze
46,Macas,EC,-2.3167,-78.1167,68.56,95,96,1.28,Clear sky
47,Casma,CL,-41.0082,-73.1244,61.88,93,66,3.69,Clear sky
48,Upernavik,GL,72.7868,-56.1549,4.84,68,100,5.66,heavy intensity rain
49,Carnarvon,AU,-24.8667,113.6333,96.87,36,32,9.22,Clear sky
50,Mar Del Plata,AR,-38.0023,-57.5575,69.1,94,95,0,Clear sky
51,Luba,GQ,3.4568,8.5547,80.49,79,82,5.23,broken clouds
52,Dikson,RU,73.5069,80.5464,-8.03,95,100,4.81,Clear sky
53,Ryotsu,JP,38.0833,138.4333,35.56,69,100,5.73,Clear sky
54,Uong Bi,VN,21.0333,106.7833,60.78,59,100,2.57,few clouds
55,Qaanaaq,GL,77.484,-69.3632,-12.75,55,99,8.59,haze
56,Ixtapa,MX,20.7,-105.2,64.26,81,59,2.21,Clear sky
57,Bredasdorp,ZA,-34.5322,20.0403,58.32,77,100,3.44,Clear sky
58,Atuona,PF,-9.8,-139.0333,78.96,71,3,17.87,heavy intensity rain
59,Keti Bandar,PK,24.1447,67.4497,71.58,46,0,5.97,Clear sky
60,Bethel,US,41.3712,-73.414,49.51,93,100,6.91,Clear sky
61,Punta Arenas,CL,-53.15,-70.9167,42.91,61,75,10.36,broken clouds
62,Aykhal,RU,66,111.5,-17.7,100,100,2.59,Clear sky
63,Saint George,US,37.1041,-113.5841,40.24,32,0,3,Clear sky
64,Arraial Do Cabo,BR,-22.9661,-42.0278,75.45,91,100,7.83,few clouds
65,El Fuerte,MX,26.4189,-108.6194,60.1,27,0,2.68,haze
66,Hithadhoo,MV,-0.6,73.0833,81.73,74,100,10.11,Clear sky
67,Sorland,NO,67.667,12.6934,24.46,91,100,29.21,Clear sky
68,Talnakh,RU,69.4865,88.3972,-13.67,99,78,7.09,heavy intensity rain
69,Severo-Kurilsk,RU,50.6789,156.125,30.94,88,100,10.27,Clear sky
70,Aranos,NA,-24.1333,19.1167,72.95,41,80,9.95,Clear sky
71,Xingyi,CN,24.1877,102.817,57.54,50,18,6.64,broken clouds
72,Barrow,US,71.2906,-156.7887,-25.58,91,100,0,Clear sky
73,Fortuna,US,40.5982,-124.1573,46.18,91,0,0,Clear sky
74,Narsaq,GL,60.9167,-46.05,25.02,96,100,9.31,few clouds
75,Cherskiy,RU,68.75,161.3,-30.35,99,13,2.53,haze
76,Longyearbyen,SJ,78.2186,15.6401,15.64,73,75,6.91,Clear sky
77,Nikolskoye,RU,59.7035,30.7861,-0.09,100,100,2.84,Clear sky
78,Kavieng,PG,-2.5744,150.7967,83.73,71,64,6.93,heavy intensity rain
79,Mount Gambier,AU,-37.8333,140.7667,73.31,38,75,6.91,Clear sky
80,Georgetown,MY,5.4112,100.3354,89.53,74,20,3,Clear sky
81,Cape Town,ZA,-33.9258,18.4232,61.88,72,0,3,broken clouds
82,Torbay,CA,47.6666,-52.7314,38.75,90,100,24.16,Clear sky
83,Ajdabiya,LY,30.7554,20.2263,53.06,60,43,16.04,Clear sky
84,Chimore,BO,-16.9833,-65.1333,71.73,99,100,1.83,few clouds
85,Ambo,PE,-10.1308,-76.2047,58.89,94,98,1.68,haze
86,La Oroya,PE,-11.5189,-75.8994,46.18,82,100,3.87,Clear sky
87,Great Falls,US,47.5002,-111.3008,19.92,88,0,5.75,Clear sky
88,Hualmay,PE,-11.0964,-77.6139,70.32,83,86,8.23,heavy intensity rain
89,Moron,AR,-34.6534,-58.6198,73.15,91,1,5.06,Clear sky
90,Dunedin,NZ,-45.8742,170.5036,50.72,96,100,5.5,Clear sky
91,Quanzhou,CN,24.9139,118.5858,56.16,79,100,8.61,broken clouds
92,Lebu,CL,-37.6167,-73.65,59.38,93,11,13.18,Clear sky
93,Ponta Delgada,PT,37.7333,-25.6667,60.49,72,20,12.66,Clear sky
94,Isiro,CD,2.7739,27.616,63.93,54,87,3.2,few clouds
95,Clarksville,US,36.5298,-87.3595,33.19,90,100,1.01,haze
96,Pangnirtung,CA,66.1451,-65.7125,-14.55,99,100,2.95,Clear sky
97,Sayyan,YE,15.1718,44.3244,49.62,31,1,1.5,Clear sky
98,Aklavik,CA,68.2191,-135.0107,-24.88,98,17,7.34,heavy intensity rain
99,Murmashi,RU,68.8154,32.8115,-1.59,84,75,0,Clear sky
100,Chupa,RU,66.27,33.0549,-5.21,100,99,0.65,Clear sky
101,Kununurra,AU,-15.7667,128.7333,89.58,70,40,9.22,broken clouds
102,Araouane,ML,18.9048,-3.5265,61.72,13,0,10.92,Clear sky
103,Gat,IL,31.61,34.7642,52.39,1,9,13.67,Clear sky
104,Puli,TW,23.9664,120.9695,63.86,71,65,3.65,few clouds
105,Albany,US,42.6001,-73.9662,37.47,91,100,3,haze
106,Clyde River,CA,70.4692,-68.5914,-7.37,84,100,34.52,Clear sky
107,Luchenza,MW,-16.0069,35.3095,69.1,87,70,3.98,Clear sky
108,Svetlaya,RU,46.5389,138.3297,17.55,52,8,2.71,heavy intensity rain
109,Nanortalik,GL,60.1432,-45.2371,26.35,94,100,15.73,Clear sky
110,Sinnamary,GF,5.3833,-52.95,76.26,90,99,10.38,Clear sky
111,Neyshabur,IR,36.2133,58.7958,42.96,35,100,1.43,broken clouds
112,Sechura,PE,-5.5569,-80.8222,71.42,80,76,11.3,Clear sky
113,Constantine,DZ,36.365,6.6147,36.81,60,0,1.14,Clear sky
114,Paamiut,GL,61.994,-49.6678,22.66,72,100,35.05,few clouds
115,Altus,US,34.6381,-99.334,19.47,81,100,1.99,haze
116,Ribeira Grande,PT,38.5167,-28.7,58.44,75,100,18.05,Clear sky
117,Khatanga,RU,71.9667,102.5,-31.99,100,90,4.36,Clear sky
118,Derzhavinsk,KZ,51.1,66.3167,6.19,80,75,7.07,heavy intensity rain
119,Bontoc,PH,17.0899,120.978,79.84,59,37,2.98,Clear sky
120,Zhaotong,CN,27.3167,103.7167,34.68,76,99,2.8,Clear sky
121,Kapaa,US,22.0752,-159.319,75.52,67,0,1.99,broken clouds
122,Ilulissat,GL,69.2167,-51.1,23.02,50,100,11.5,Clear sky
123,Sioux Lookout,CA,50.1001,-91.917,-9.02,76,75,2.3,Clear sky
124,Waingapu,ID,-9.6567,120.2641,87.78,64,53,14,few clouds
125,Hay River,CA,60.8156,-115.7999,-25.64,75,20,5.75,haze
126,Majene,ID,-3.5403,118.9707,85.55,61,77,5.7,Clear sky
127,Faya,SA,18.3851,42.4509,51.91,52,5,3.06,Clear sky
128,Ponta Do Sol,PT,32.6667,-17.1,67.01,66,19,3.53,heavy intensity rain
129,Vestmannaeyjar,IS,63.4427,-20.2734,28.06,70,32,32.3,Clear sky
130,Bouna,CI,9.2667,-3,67.46,13,0,5.37,Clear sky
131,Inirida,CO,3.8653,-67.9239,72.43,92,48,1.34,broken clouds
132,Souillac,MU,-20.5167,57.5167,81.36,94,75,20.71,Clear sky
133,Mecca,SA,21.4267,39.8261,70.12,88,44,5.14,Clear sky
134,Port Elizabeth,ZA,-33.918,25.5701,66.49,77,0,12.66,few clouds
135,Vostok,RU,46.4856,135.8833,2.3,84,99,6.04,haze
136,Brae,GB,60.3964,-1.353,37.31,71,83,35.84,Clear sky
137,Oranjemund,NA,-28.55,16.4333,63.23,82,3,19.75,Clear sky
138,Codrington,AU,-38.2667,141.9667,68,59,71,16.15,heavy intensity rain
139,Rudbar,AF,30.15,62.6,51.76,29,0,2.06,Clear sky
140,Copiapo,CL,-27.3667,-70.3333,65.48,64,0,1.61,Clear sky
141,Belyy Yar,RU,53.6039,91.3903,-14.91,76,40,2.24,broken clouds
142,Bin Qirdan,TN,33.1378,11.2197,50.67,74,2,9.42,Clear sky
143,Tuktoyaktuk,CA,69.4541,-133.0374,-23.8,76,75,8.05,Clear sky
144,Ahuimanu,US,21.4447,-157.8378,80.31,64,20,3,few clouds
145,Esso,RU,55.9333,158.7,16.52,92,100,0.49,haze
146,Port Hawkesbury,CA,45.6169,-61.3485,39.9,98,100,3,Clear sky
147,Barreirinhas,BR,-2.7469,-42.8264,76.42,91,90,7.23,Clear sky
148,Sainte-Marie,RE,-20.8968,55.5496,80.73,89,100,13.8,heavy intensity rain
149,Veraval,IN,20.9,70.3667,67.89,37,10,3.62,Clear sky
150,Port Macquarie,AU,-31.4333,152.9167,75.88,60,55,18.61,Clear sky
151,Atasu,KZ,48.6814,71.6433,4.35,80,0,5.64,broken clouds
152,Palu,ID,-0.8917,119.8707,88.5,57,100,4.43,Clear sky
153,San Patricio,US,28.017,-97.5169,35.83,75,74,16.15,Clear sky
154,Lavrentiya,RU,65.5833,-171,1.96,55,0,22.73,few clouds
155,Libreville,GA,0.3925,9.4537,78.48,79,96,4.74,haze
156,Port Hardy,CA,50.6996,-127.4199,46.76,93,75,13.8,Clear sky
157,Tuatapere,NZ,-46.1333,167.6833,52.83,91,100,4.23,Clear sky
158,Alkhan-Churt,RU,43.35,44.78,29.66,71,100,3.18,heavy intensity rain
159,Karratha,AU,-20.7377,116.8463,93.97,41,61,11.41,Clear sky
160,Watervliet,US,42.7301,-73.7012,40.96,93,100,1.99,Clear sky
161,Quimper,FR,48,-4.1,50.61,93,75,4.61,broken clouds
162,Gizo,SB,-8.103,156.8419,82.33,75,100,9.15,Clear sky
163,Vardo,NO,70.3705,31.1107,14.2,64,100,14.14,Clear sky
164,Creel,MX,27.75,-107.6333,24.04,94,6,1.92,few clouds
165,Fort Smith,US,35.3859,-94.3986,23.88,83,100,1.99,haze
166,Mareeba,AU,-17,145.4333,84.92,92,100,4.07,Clear sky
167,Jamestown,US,42.097,-79.2353,22.08,69,100,5.01,Clear sky
168,Maralal,KE,1.0968,36.698,58.82,68,100,5.46,heavy intensity rain
169,Saint-Augustin,CA,51.226,-58.6502,5.31,74,100,13.98,Clear sky
170,Port Alfred,ZA,-33.5906,26.891,69.84,75,98,15.48,Clear sky
171,Palmer,US,42.1584,-72.3287,47.46,88,100,5.75,broken clouds
172,Ruston,US,32.5232,-92.6379,31.69,93,100,9.53,Clear sky
173,Bambous Virieux,MU,-20.3428,57.7575,81.21,94,75,20.71,Clear sky
174,Kodiak,US,57.79,-152.4072,38.71,81,100,17.27,few clouds
175,Mehamn,NO,71.0357,27.8492,18.09,84,85,12.44,haze
176,Nantucket,US,41.2835,-70.0995,51.26,94,100,14.97,Clear sky
177,Lasa,IT,46.6166,10.7002,36.86,64,28,3.09,Clear sky
178,Porto Novo,BJ,6.4965,2.6036,75.79,88,0,2.21,heavy intensity rain
179,Asfi,MA,32.2994,-9.2372,63.55,46,100,11.3,Clear sky
180,Banda Aceh,ID,5.5577,95.3222,85.24,63,52,9.8,Clear sky
181,Katherine,AU,-14.4667,132.2667,89.92,58,93,5.75,broken clouds
182,Bara,NG,10.3744,10.7288,60.82,21,38,8.43,Clear sky
183,Tazovskiy,RU,67.4667,78.7,-1.19,99,99,6.04,Clear sky
184,Cidreira,BR,-30.1811,-50.2056,75.52,90,88,20.33,few clouds
185,Nemuro,JP,43.3236,145.575,25.23,59,43,14.16,haze
186,Saint-Philippe,RE,-21.3585,55.7679,80.15,92,100,32.3,Clear sky
187,Fukue,JP,32.6881,128.8419,44.96,49,75,11.5,Clear sky
188,Kampene,CD,-3.6,26.6667,66.04,100,100,2.1,heavy intensity rain
189,Thompson,CA,55.7435,-97.8558,-20.04,69,0,5.75,Clear sky
190,Dali,CN,25.7,100.1833,53.15,46,5,3.78,Clear sky
191,Whitianga,NZ,-36.8333,175.7,73.63,71,9,9.86,broken clouds
192,Ayan,RU,56.45,138.1667,-0.85,66,97,14.79,Clear sky
193,Ishigaki,JP,24.3448,124.1572,64.53,94,75,21.85,Clear sky
194,Floro,NO,61.5996,5.0328,39.16,87,100,16.11,few clouds
195,Imbituba,BR,-28.24,-48.6703,78.69,93,15,14.32,haze
196,Fort Dodge,US,42.4975,-94.168,-1.25,77,0,0,Clear sky
197,Outlook,CA,51.5001,-107.0513,-14.24,100,91,4.41,Clear sky
198,Vilhena,BR,-12.7406,-60.1458,67.95,98,99,2.71,heavy intensity rain
199,Lexington,US,37.9887,-84.4777,32.34,86,100,13.8,Clear sky
200,Grand Gaube,MU,-20.0064,57.6608,81.37,83,100,11.99,Clear sky
201,Chardara,KZ,41.2547,67.9692,40.51,40,4,8.63,broken clouds
202,Rock Springs,US,41.5875,-109.2029,14.05,65,0,11.99,Clear sky
203,Flinders,AU,-34.5833,150.8552,76.37,58,77,17.27,Clear sky
204,Tarko-Sale,RU,64.9225,77.785,12.94,96,100,8.34,few clouds
205,Chuy,UY,-33.6971,-53.4616,70.92,95,100,6.29,haze
206,Viedma,AR,-40.8135,-62.9967,69.33,55,31,6.91,Clear sky
207,Chokurdakh,RU,70.6333,147.9167,-27.42,100,61,0.31,Clear sky
208,Bengkulu,ID,-3.8004,102.2655,80.4,76,97,2.73,heavy intensity rain
209,Pevek,RU,69.7008,170.3133,-20.11,100,26,2.93,Clear sky
210,Catuday,PH,16.2923,119.8062,80.65,67,9,8.1,Clear sky
211,Ustye,RU,59.6304,39.736,-5.19,100,100,2.04,broken clouds
212,Vila Velha,BR,-20.3297,-40.2925,75.15,95,40,6.91,Clear sky
213,Chulman,RU,56.8479,124.9104,-7.74,94,100,10.45,Clear sky
214,Laramie,US,41.3114,-105.5911,11.95,56,0,6.91,few clouds
215,Szigetvar,HU,46.0486,17.8055,37.33,76,100,4.92,haze
216,Luderitz,NA,-26.6481,15.1594,68.18,70,2,15.05,Clear sky
217,Finschhafen,PG,-6.6024,147.8681,86.61,68,98,6.8,Clear sky
218,Bacolod,PH,10.6667,122.95,82.24,69,93,12.5,heavy intensity rain
219,Navoi,UZ,40.0844,65.3792,38.68,52,13,16.11,Clear sky
220,Okhotsk,RU,59.3833,143.3,10.81,74,83,14.92,Clear sky
221,Vorotynets,RU,56.0603,45.8633,17.22,91,100,9.04,broken clouds
222,Ukiah,US,39.1502,-123.2078,51.37,77,0,0,Clear sky
223,Kruisfontein,ZA,-34.0033,24.7314,63.88,75,79,9.17,Clear sky
224,Esperance,AU,-33.8667,121.9,85.84,47,4,11.77,few clouds
225,Yumen,CN,40.2833,97.2,19.2,28,89,13.89,haze
226,Hovd,MN,48.0056,91.6419,-2.54,76,20,1.59,Clear sky
227,Shelburne,CA,44.0787,-80.2041,10.85,89,100,11.25,Clear sky
228,Woodward,US,36.4337,-99.3904,15.73,89,100,5.75,heavy intensity rain
229,Santa Cruz,BO,-17.8,-63.1667,74.66,94,40,6.91,Clear sky
230,Ribas Do Rio Pardo,BR,-20.4431,-53.7592,73.92,92,100,3.96,Clear sky
231,Gwadar,PK,25.1216,62.3254,68.97,37,0,7.14,broken clouds
232,Daru,PG,-9.0763,143.2092,89.19,59,100,10.04,Clear sky
233,Provideniya,RU,64.3833,-173.3,1.99,59,6,22.08,Clear sky
234,Cefalu,IT,38.0386,14.0229,54.54,36,47,1.99,few clouds
235,Humberto De Campos,BR,-2.5983,-43.4611,75.72,92,68,6.98,haze
236,San Pedro Carcha,GT,15.4833,-90.2667,61,93,58,2.91,Clear sky
237,Xining,CN,36.6167,101.7667,17.64,45,98,2.68,Clear sky
238,Raudeberg,NO,61.9875,5.1352,38.07,94,100,8.01,heavy intensity rain
239,Impfondo,CG,1.6381,18.0667,66.04,60,90,2.24,Clear sky
240,Carbonia,IT,39.1672,8.5222,46.99,71,11,2.75,Clear sky
241,Nioro,GM,13.35,-15.75,73.15,22,0,3.94,broken clouds
242,Bud,US,39.447,-86.1758,21.85,92,100,15.23,Clear sky
243,Bathsheba,BB,13.2167,-59.5167,75.81,73,20,11.5,Clear sky
244,Vilyuysk,RU,63.7553,121.6247,-16.24,96,80,4.18,few clouds
245,Trincomalee,LK,8.5711,81.2335,77.41,69,3,4.38,haze
246,Sabha,LY,27.0377,14.4283,45.61,70,0,8.86,Clear sky
247,Pochutla,MX,15.7432,-96.4661,74.82,73,0,3.6,Clear sky
248,Youghal,IE,51.95,-7.8506,40.21,97,100,12.5,heavy intensity rain
249,Severnyy,RU,50.677,36.5532,26.64,93,100,6.71,Clear sky
250,Atambua,ID,-9.1061,124.8925,80.29,75,61,7.47,Clear sky
251,Salalah,OM,17.0151,54.0924,72.77,33,4,7.78,broken clouds
252,Taoudenni,ML,22.6783,-3.9836,60.64,21,27,8.97,Clear sky
253,At-Bashi,KG,41.1702,75.8106,3.09,77,32,1.79,Clear sky
254,Husavik,IS,66.0449,-17.3389,22.91,81,100,15.97,few clouds
255,Haines Junction,CA,60.7522,-137.5108,-2.25,78,100,1.14,haze
256,Sampit,ID,-2.5333,112.95,83.44,77,100,2.77,Clear sky
257,Elur,IN,10.0667,76.2833,80.56,78,24,0,Clear sky
258,Kamina,CD,-8.7386,24.9906,62.31,98,100,2.73,heavy intensity rain
259,Moussoro,TD,13.6408,16.4901,58.59,23,11,14.2,Clear sky
260,Oranjestad,AW,12.524,-70.027,80.55,78,20,17.27,Clear sky
261,Lubango,AO,-14.9172,13.4925,57.74,57,27,1.88,broken clouds
262,Vasai,IN,19.47,72.8,77,53,98,3.11,Clear sky
263,Milos,GR,36.75,24.4333,50.54,56,57,35.23,Clear sky
264,Shubarkuduk,KZ,49.1447,56.4872,22.44,80,100,16.75,few clouds
265,Tambura,SS,5.6,27.4667,72.07,34,99,2.98,haze
266,Mormugao,IN,15.4,73.8,72.66,88,40,4.61,Clear sky
267,Crewe,GB,53.0979,-2.4416,43.56,93,100,5.99,Clear sky
268,Waipawa,NZ,-41.4122,175.5153,72.23,44,94,5.68,heavy intensity rain
269,Skibbereen,IE,51.55,-9.2667,41.11,74,77,15.26,Clear sky
270,Puerto Ayacucho,VE,5.6639,-67.6236,75.74,80,54,3.56,Clear sky
271,Ushibuka,JP,32.1906,130.0228,47.1,49,12,17.85,broken clouds
272,Yinchuan,CN,38.4681,106.2731,21.78,29,0,2.8,Clear sky
273,Acarau,BR,-2.8856,-40.12,77.85,86,64,10.71,Clear sky
274,Krasnoselkup,RU,65.7,82.4667,8.78,96,98,7.54,few clouds
275,Prince Rupert,CA,54.3161,-130.3201,44.69,93,100,13.8,haze
276,Westport,US,41.1415,-73.3579,51.19,97,100,1.01,Clear sky
277,Kachkanar,RU,58.7,59.4948,11.59,97,100,3.36,Clear sky
278,Zhangye,CN,38.9342,100.4517,24.46,32,83,1.34,heavy intensity rain
279,Mariestad,SE,58.7097,13.8237,38.5,99,100,11.25,Clear sky
280,Itarema,BR,-2.9248,-39.9167,77.58,87,79,10.07,Clear sky
281,Cabo San Lucas,MX,22.8909,-109.9124,67.51,56,34,5.64,broken clouds
282,Puerto Escondido,MX,15.85,-97.0667,76.03,73,0,5.75,Clear sky
283,Miyako,JP,39.6367,141.9525,35.06,46,91,7.94,Clear sky
284,Kaitangata,NZ,-46.2817,169.8464,49.35,95,100,2.98,few clouds
285,Zhashkiv,UA,49.2454,30.1102,13.96,96,53,7.2,haze
286,Maputo,MZ,-25.9653,32.5892,80.28,86,75,8.05,Clear sky
287,Storsteinnes,NO,69.2408,19.2344,21.2,84,100,13.15,Clear sky
288,Tobermory,CA,45.2501,-81.6665,0.3,84,100,20.13,heavy intensity rain
289,Dong Xoai,VN,11.5333,106.9167,92.52,42,32,1.28,Clear sky
290,Najran,SA,17.4924,44.1277,52.45,32,6,5.7,Clear sky
291,Westerland,DE,54.9079,8.3033,43.18,100,100,17.27,broken clouds
292,Olafsvik,IS,64.8945,-23.7142,27.55,74,93,25.86,Clear sky
293,San Joaquin,US,37.9333,-121.3011,50.63,57,0,0,Clear sky
294,Barreiros,BR,-8.8183,-35.1864,77.14,78,97,6.22,few clouds
295,Faanui,PF,-16.4833,-151.75,81.32,71,2,15.26,haze
296,Kerchevskiy,RU,59.946,56.2884,-2.29,100,100,1.9,Clear sky
297,Nyurba,RU,63.2842,118.3319,-17.91,97,89,2.91,Clear sky
298,Maua,BR,-23.6678,-46.4614,71.37,91,99,3.53,heavy intensity rain
299,Abnub,EG,27.2696,31.1511,50.16,54,3,13.09,Clear sky
300,Olinda,BR,-8.0089,-34.8553,82.13,69,40,8.05,Clear sky
301,Dovers,VC,12.8833,-61.1833,78.13,68,5,17.65,broken clouds
302,Sorkjosen,NO,69.8,20.9333,11.7,82,79,22.46,Clear sky
303,Buraydah,SA,26.326,43.975,64.85,67,4,10.09,Clear sky
304,Aquiraz,BR,-3.9014,-38.3911,82.49,87,98,7.63,few clouds
305,Cairns,AU,-16.9167,145.7667,89.55,55,100,2.3,haze
306,Beni Mazar,EG,28.4962,30.8029,49.69,51,4,13.13,Clear sky
307,Coihaique,CL,-45.5752,-72.0662,56.01,76,20,3.44,Clear sky
308,Lagoa,PT,39.05,-27.9833,57.67,76,100,11.3,heavy intensity rain
309,Kahului,US,20.8947,-156.47,79.86,71,12,8.99,Clear sky
310,Margate,GB,51.3813,1.3862,49.96,86,98,22.17,Clear sky
311,Villablino,ES,42.9393,-6.3194,41.5,99,98,1.95,broken clouds
312,Pompeu,BR,-19.2244,-44.9353,67.01,91,48,1.81,Clear sky
313,Port Augusta,AU,-32.5,137.7667,85.71,27,0,11.54,Clear sky
314,Hamilton,US,39.1834,-84.5333,24.64,91,100,4,few clouds
315,Buala,SB,-8.145,159.5921,78.64,88,100,6.22,haze
316,Namatanai,PG,-3.6667,152.4333,84.43,69,76,10.2,Clear sky
317,Tabas,IR,33.5959,56.9244,48.25,28,26,2.62,Clear sky
318,Kifri,IQ,34.6959,44.9661,50.59,64,85,3.65,heavy intensity rain
319,College,US,64.8569,-147.8028,2.86,54,40,9.22,Clear sky
320,Soyo,AO,-6.1349,12.3689,76.71,76,96,3.22,Clear sky
321,Jiaohe,CN,43.7286,127.3447,7.47,81,100,4.63,broken clouds
322,Mitu,CO,1.1983,-70.1733,70.93,99,69,0.54,Clear sky
323,Vallentuna,SE,59.5344,18.0776,36.18,93,100,5.99,Clear sky
324,Coquimbo,CL,-29.9533,-71.3436,64.13,82,20,3.44,few clouds
325,Adrar,MR,20.5022,-10.0711,59.36,22,0,9.95,haze
326,Miami,US,25.7743,-80.1937,75.02,84,2,4,Clear sky
327,Leningradskiy,RU,69.3833,178.4167,-10.32,83,3,7.58,Clear sky
328,Menongue,AO,-14.6585,17.691,61.18,95,100,3.31,heavy intensity rain
329,Saskylakh,RU,71.9167,114.0833,-14.08,98,100,2.1,Clear sky
330,Yar-Sale,RU,66.8333,70.8333,-2.09,98,98,4.79,Clear sky
331,Plettenberg Bay,ZA,-34.0527,23.3716,63.07,82,100,4.72,broken clouds
332,Galich,RU,58.3797,42.3475,5.23,99,94,2.19,Clear sky
333,Fairbanks,US,64.8378,-147.7164,0.48,54,0,8.05,Clear sky
334,Cabra,ES,37.4725,-4.4421,38.5,62,22,0.83,few clouds
335,Caravelas,BR,-17.7125,-39.2481,76.03,91,98,3.98,haze
336,Shanhetun,CN,44.7,127.2,6.12,82,100,8.25,Clear sky
337,Kavaratti,IN,10.5669,72.642,79.18,65,5,9.08,Clear sky
338,Gravdal,NO,68.1214,13.5031,25.02,69,100,25.05,heavy intensity rain
339,Muyezerskiy,RU,63.9333,31.65,-7.04,100,88,2.13,Clear sky
340,Evensk,RU,61.95,159.2333,15.57,46,31,23.58,Clear sky
341,Bosaso,SO,11.2842,49.1816,72.19,69,5,3.06,broken clouds
342,Yulara,AU,-25.2406,130.9889,80.44,26,88,14.97,Clear sky
343,Sao Joao Da Barra,BR,-21.6403,-41.0511,73.27,98,98,5.57,Clear sky
344,Locri,IT,38.2414,16.2623,50.83,75,68,8.43,few clouds
345,Airai,TL,-8.9266,125.4092,73.83,61,78,5.08,haze
346,Mandurah,AU,-32.55,115.7,102.22,34,54,11.83,Clear sky
347,Liku,ID,-0.7275,119.8922,86.94,59,100,4.25,Clear sky
348,Bayji,IQ,34.9311,43.487,50.23,45,50,8.48,heavy intensity rain
349,Broken Hill,AU,-31.95,141.4333,73.11,28,0,17.27,Clear sky
350,San Policarpo,PH,12.1791,125.5072,75.94,84,100,10.63,Clear sky
351,Mumbwa,ZM,-14.9783,27.0619,63.86,98,100,4.54,broken clouds
352,Issaquah,US,47.5301,-122.0326,48.29,85,100,1.99,Clear sky
353,Saldanha,ZA,-33.0117,17.9442,57.25,79,0,19.28,Clear sky
354,Port Lincoln,AU,-34.7333,135.8667,68.34,55,37,14.23,few clouds
355,Choya,RU,52.0108,86.5467,13.6,79,50,2.68,haze
356,Netanya,IL,32.3329,34.8599,51.94,70,33,19.06,Clear sky
357,Nuuk,GL,64.1835,-51.7216,10.47,94,100,9.82,Clear sky
358,Anderson,US,34.5334,-82.6499,65.75,94,100,9.22,heavy intensity rain
359,Malinovskiy,RU,61.1953,62.8397,10.38,99,96,4.03,Clear sky
360,Punto Fijo,VE,11.6956,-70.1996,77.59,83,7,23.4,Clear sky
361,Keetmanshoop,NA,-26.5833,18.1333,73.96,42,37,0.98,broken clouds
362,Asau,RO,46.4333,26.4,20.32,90,26,6.11,Clear sky
363,Nizip,TR,37.0097,37.7942,42.93,92,92,8.5,Clear sky
364,Half Moon Bay,US,37.4636,-122.4286,55.35,77,20,5.75,few clouds
365,Tual,ID,-5.6667,132.75,83.8,73,88,15.28,haze
366,Vermilion,US,40.1667,-87.7506,19.96,83,0,11.99,Clear sky
367,Starozhilovo,RU,54.2254,39.916,19.04,82,100,7.2,Clear sky
368,Bambanglipuro,ID,-7.95,110.2833,77.61,69,98,2.21,heavy intensity rain
369,Quang Ngai,VN,15.1167,108.8,73.26,80,93,9.62,Clear sky
370,Burnie,AU,-41.0667,145.9167,66.94,56,2,9.89,Clear sky
371,Puerto Gaitan,CO,4.3133,-72.0816,81.86,58,100,5.99,broken clouds
372,Grindavik,IS,63.8424,-22.4338,28.35,74,40,23.02,Clear sky
373,Hasaki,JP,35.7333,140.8333,48.29,58,100,6.87,Clear sky
374,Bereda,ES,43.2686,-7.5406,50,94,100,2.73,few clouds
375,Veracruz,MX,19.3333,-96.6667,66.87,88,19,3.36,haze
376,Chamba,IN,32.5667,76.1333,44.47,92,100,2.24,Clear sky
377,Gunjur,GM,13.2019,-16.7339,72.09,64,0,4.7,Clear sky
378,Port Blair,IN,11.6667,92.75,80.64,74,20,9.22,heavy intensity rain
379,Kez,RU,57.8979,53.7152,12.56,96,100,5.12,Clear sky
380,San Quintin,MX,30.4833,-115.95,56.08,66,0,3.98,Clear sky
381,Turbat,PK,26.0023,63.044,63.28,13,0,5.59,broken clouds
382,Portland,US,45.5234,-122.6762,45.48,93,20,1.01,Clear sky
383,Vila Franca Do Campo,PT,37.7167,-25.4333,60.19,81,100,11.54,Clear sky
384,Ndjole,GA,-0.1783,10.7649,73.76,98,100,1.28,few clouds
385,Hadgaon,IN,19.5,77.6667,67.59,33,14,9.15,haze
386,Itaituba,BR,-4.2761,-55.9836,72.52,95,35,1.07,Clear sky
387,Makakilo City,US,21.3469,-158.0858,73.62,63,2,8.19,Clear sky
388,Sitka,US,57.0531,-135.33,37.81,97,100,9.64,heavy intensity rain
389,Tikrit,IQ,34.6071,43.6782,51.93,41,65,9.53,Clear sky
390,Nelson Bay,AU,-32.7167,152.15,74.28,76,10,3,Clear sky
391,Havoysund,NO,70.9963,24.6622,16.68,74,49,23.2,broken clouds
392,Le Port,RE,-20.9373,55.2919,80.56,84,100,26.15,Clear sky
393,Meulaboh,ID,4.1363,96.1285,84,65,87,3.04,Clear sky
394,Teya,RU,60.3778,92.6267,14.11,92,100,6.58,few clouds
395,Chimoio,MZ,-19.1164,33.4833,75.06,88,75,3.76,haze
396,Kabanjahe,ID,3.1001,98.4908,68.76,74,48,3.24,Clear sky
397,Kisangani,CD,0.5167,25.2,67.89,96,100,2.37,Clear sky
398,Mankono,CI,8.0586,-6.1897,67.87,14,0,3.74,heavy intensity rain
399,Naze,JP,28.3667,129.4833,54.52,70,98,16.46,Clear sky
400,Novyy Urengoy,RU,66.0833,76.6333,-0.17,100,97,5.26,Clear sky
401,Sabang,ID,5.8933,95.3214,82.8,71,85,15.55,broken clouds
402,Parrita,CR,9.5201,-84.3225,80.37,79,0,2.42,Clear sky
403,Sao Filipe,CV,14.8961,-24.4956,72.36,76,0,7.74,Clear sky
404,Nipawin,CA,53.3668,-104.0009,-16.56,76,0,9.22,few clouds
405,Nizhniy Kuranakh,RU,58.8353,125.4869,-5.64,91,100,5.84,haze
406,Alpena,US,45.0617,-83.4327,15.19,74,93,9.69,Clear sky
407,Zeya,RU,53.75,127.2667,2.68,52,61,4.92,Clear sky
408,Itapirapua,BR,-15.8233,-50.6133,72.12,94,98,1.39,heavy intensity rain
409,Demidov,RU,55.2706,31.515,-0.29,100,100,2.89,Clear sky
410,Cabedelo,BR,-6.9811,-34.8339,79.47,76,99,12.64,Clear sky
411,Adelaide,AU,-34.9333,138.6,82.04,29,0,4,broken clouds
412,Broome,US,42.2506,-75.833,33.01,84,100,3,Clear sky
413,Englehart,CA,47.8169,-79.8664,-14.24,70,0,5.75,Clear sky
414,Zulueta,ES,42.7451,-1.5793,39.34,93,0,0,few clouds
415,Ust-Nera,RU,64.5667,143.2,-8.57,96,93,3.96,haze
416,Mendi,PG,-6.1761,143.6513,66.81,77,91,4.56,Clear sky
417,Ahipara,NZ,-35.1667,173.1667,76.42,71,56,14.03,Clear sky
418,Santa Rosa,PH,14.3122,121.1114,90.09,60,88,13.56,heavy intensity rain
419,Rincon,US,32.296,-81.2354,68.45,90,78,1.01,Clear sky
420,Brokopondo,SR,4.75,-55.1667,73.92,93,97,7.09,Clear sky
421,Price,US,39.5994,-110.8107,23.11,68,7,7.4,broken clouds
422,Macau,MO,22.2006,113.5461,61.93,67,20,21.85,Clear sky
423,Komsomolskiy,UZ,40.4272,71.7189,36.82,80,2,2.3,Clear sky
424,Shingu,JP,33.7333,135.9833,49.19,31,45,7.27,few clouds
425,Porto San Giorgio,IT,43.1827,13.7934,51.12,64,100,3.18,haze
426,Rongcheng,CN,30.634,117.8517,41.79,79,100,2.1,Clear sky
427,Poum,NC,-20.2333,164.0167,82.58,84,92,13.22,Clear sky
428,Tura,IN,25.5198,90.2201,57.22,89,100,1.1,heavy intensity rain
429,Liverpool,GB,53.4106,-2.9779,41.68,88,100,5.01,Clear sky
430,Dingle,PH,10.9995,122.6711,80.22,81,85,14.56,Clear sky
431,Saint Anthony,US,45.0205,-93.218,0.93,66,0,3.44,broken clouds
432,Ligayan,PH,4.6533,119.4706,80.02,80,63,13.38,Clear sky
433,Iracoubo,GF,5.4802,-53.2011,76.33,89,100,10.54,Clear sky
434,Martapura,ID,-3.4167,114.85,87.89,66,40,3.44,few clouds
435,Camacha,PT,33.0833,-16.3333,63.54,94,20,8.05,haze
436,Kungurtug,RU,50.5994,97.5228,-2.22,93,78,1.34,Clear sky
437,Huarmey,PE,-10.0681,-78.1522,71.29,82,24,7.81,Clear sky
438,Tessalit,ML,20.1986,1.0114,55.04,19,0,12.26,heavy intensity rain
439,Tocopilla,CL,-22.092,-70.1979,68.32,76,12,6.58,Clear sky
440,Benghazi,LY,32.1167,20.0667,55.6,57,17,23.91,Clear sky
441,Pyaozerskiy,RU,65.8333,31.1667,1.51,99,92,1.72,broken clouds
442,Coos Bay,US,43.3665,-124.2179,44.15,99,15,5.26,Clear sky
443,Praia,CV,14.9215,-23.5087,70.34,83,0,12.66,Clear sky
444,Chara,RU,56.9064,118.2631,-12.37,93,68,1.59,few clouds
445,Oktyabrskiy,RU,54.4815,53.471,30.7,95,100,12.35,haze
446,Purwakarta,ID,-6.5569,107.4433,85.3,62,56,5.93,Clear sky
447,Tucuman,AR,-26.8241,-65.2226,73.4,88,0,6.91,Clear sky
448,Walvis Bay,NA,-22.9575,14.5053,66.09,80,16,8.68,heavy intensity rain
449,Nadym,RU,65.5333,72.5167,1.69,100,98,6.35,Clear sky
450,La Rioja,ES,42.25,-2.5,41.31,53,93,4.65,Clear sky
451,Sorong,ID,-0.8833,131.25,84.42,71,51,9.8,broken clouds
452,Norman Wells,CA,65.282,-126.8329,-43.56,66,0,0,Clear sky
453,Strathpeffer,GB,57.588,-4.5382,37.29,93,27,15.12,Clear sky
454,Asyut,EG,27.181,31.1837,50.29,54,3,13.56,few clouds
455,Virginia Beach,US,36.8529,-75.978,63.27,72,100,18.39,haze
456,Svetlogorsk,BY,52.6333,29.7333,3.43,100,80,4.38,Clear sky
457,Laguna,US,38.421,-121.4238,51.96,72,0,2.91,Clear sky
458,Aden,YE,12.7794,45.0367,76.95,58,0,7,heavy intensity rain
459,Morondava,MG,-20.2833,44.2833,79.23,85,33,3.85,Clear sky
460,Rivadavia,AR,-33.1905,-68.4608,73.87,71,55,14.56,Clear sky
461,Kamenka,RU,51.3223,42.7678,27.75,98,100,8.86,broken clouds
462,Pontianak,ID,-0.0333,109.3333,82.38,78,40,4.61,Clear sky
463,Herouville-Saint-Clair,FR,49.2109,-0.3065,47.57,81,100,12.66,Clear sky
464,Pangody,RU,65.85,74.4859,6.42,97,95,6.33,few clouds
465,Dustlik,UZ,40.5247,68.0358,39.94,57,2,10.56,haze
466,Khani,GE,41.9563,42.9566,27.97,78,100,5.77,Clear sky
467,Rocha,UY,-34.4833,-54.3333,70.23,97,100,7.58,Clear sky
468,Ciudad Real,ES,39,-4,49.1,74,68,1.01,heavy intensity rain
469,Pafos,CY,34.7667,32.4167,49.78,87,75,4.61,Clear sky
470,Thessalon,CA,46.2501,-83.5666,-7.24,88,4,8.19,Clear sky
471,Ugoofaaru,MV,5.6667,73,80.98,73,43,10.04,broken clouds
472,Hami,CN,42.8,93.45,25.57,31,12,0.83,Clear sky
473,Kargasok,RU,59.0556,80.8572,16.02,86,100,14.07,Clear sky
474,El Espinal,MX,16.3333,-94.0667,68.7,83,3,3.49,few clouds
475,Lensk,RU,60.7253,114.9278,8.64,89,99,7.14,haze
476,Kuryk,KZ,43.2,51.65,43.27,70,99,11.1,Clear sky
477,Grand Baie,MU,-20.0182,57.5802,81.45,84,100,11.01,Clear sky
478,Moerai,PF,-22.4333,-151.3333,79.47,78,99,17.31,heavy intensity rain
479,Sistranda,NO,63.7256,8.834,34.9,90,100,21.61,Clear sky
480,Centralina,BR,-18.5839,-49.1994,72.19,89,100,4.63,Clear sky
481,Verkhnyaya Inta,RU,65.9811,60.3094,14.22,96,100,5.5,broken clouds
482,Waddan,LY,29.1614,16.139,45.7,82,0,5.32,Clear sky
483,Ostrovnoy,RU,68.0531,39.5131,8.62,96,100,5.21,Clear sky
484,Palmaner,IN,13.2,78.75,76.24,53,6,6.8,few clouds
485,Algiers,DZ,36.7525,3.042,42.62,81,0,4.61,haze
486,Pundaguitan,PH,6.3711,126.1689,76.23,89,100,12.95,Clear sky
487,Tamworth,GB,52.634,-1.6959,49.64,91,100,5.01,Clear sky
488,Ornskoldsvik,SE,63.2909,18.7153,30.02,100,100,21.85,heavy intensity rain
489,Nisia Floresta,BR,-6.0911,-35.2086,80.98,80,66,7.45,Clear sky
490,Tacuarembo,UY,-31.7333,-55.9833,70.93,85,100,2.77,Clear sky
491,Berlevag,NO,70.8578,29.0864,20.64,81,96,13.51,broken clouds
492,Antofagasta,CL,-23.65,-70.4,65.48,78,5,3.13,Clear sky
493,Aswan,EG,24.0934,32.907,52.3,39,0,9.06,Clear sky
494,Honiara,SB,-9.4333,159.95,76.91,94,100,8.95,few clouds
495,Babol,IR,36.5513,52.679,52.02,49,0,2.86,haze
496,Sur,OM,22.5667,59.5289,70.2,43,0,2.93,Clear sky
497,Trelew,AR,-43.249,-65.3051,72.64,48,100,6.69,Clear sky
498,San Pedro,PH,14.35,121.0167,89.31,58,20,4.61,heavy intensity rain
499,Rawson,AR,-43.3002,-65.1023,69.22,59,100,6.91,Clear sky
500,Doha,QA,25.2867,51.5333,60.78,88,0,0,Clear sky
501,Chegdomyn,RU,51.1167,133.0167,-4.07,87,90,2.51,broken clouds
502,Cockburn Town,TC,21.4612,-71.1419,75.83,71,1,19.48,Clear sky
503,Wajima,JP,37.4,136.9,36.28,75,75,2.3,Clear sky
504,Sotouboua,TG,8.5667,0.9833,73.44,19,0,1.52,few clouds
505,Cerignola,IT,41.264,15.9005,42.57,56,100,4.9,haze
506,Corinto,GR,37.9407,22.9573,43.75,64,14,3.27,Clear sky
507,Koungheul,SN,13.9833,-14.8,72.61,12,0,9.44,Clear sky
508,Moissac,FR,44.1024,1.0945,51.28,80,100,3.91,heavy intensity rain
509,Ko Samui,TH,9.5357,99.9357,84.11,74,40,11.5,Clear sky
510,Geraldton,AU,-28.7667,114.6,106.21,10,0,8.05,Clear sky
511,Sao Geraldo Do Araguaia,BR,-6.4006,-48.555,73.17,96,96,2.19,broken clouds
512,Ucluelet,CA,48.9329,-125.5528,46.09,94,100,4.14,Clear sky
513,Sasciori,RO,45.8667,23.5833,19.54,79,93,3.91,Clear sky
514,Zabaykalsk,RU,49.6333,117.3167,-5.75,82,13,8.46,few clouds
515,Dong Hoi,VN,17.4833,106.6,63.41,88,100,10.98,haze
516,Mayo,US,38.8876,-76.5119,61.11,94,100,1.01,Clear sky
517,Sao Jose De Ribamar,BR,-2.5619,-44.0542,79.18,85,97,11.7,Clear sky
518,Mersing,MY,2.4312,103.8405,82.35,75,45,10.31,heavy intensity rain
519,Altamira,BR,-3.2033,-52.2064,71.49,99,63,2.91,Clear sky
520,Shaghat,AM,39.5625,45.9143,23.7,77,33,3.85,Clear sky
521,Vorukh,TJ,39.8494,70.5838,29.84,41,2,5.86,broken clouds
522,Auki,SB,-8.7676,160.7034,75.88,92,100,9.04,Clear sky
523,Conde,BR,-7.2597,-34.9075,77.95,78,97,10.42,Clear sky
524,Avera,US,33.194,-82.5271,69.71,78,100,15.39,few clouds
525,Samarai,PG,-10.6167,150.6667,83.32,73,91,5.93,haze
526,Isangel,VU,-19.55,169.2667,83.35,76,100,8.97,Clear sky
527,Zyryanka,RU,65.75,150.85,-23.89,98,100,5.12,Clear sky
528,Surt,LY,31.2089,16.5887,56.34,58,3,10.27,heavy intensity rain
529,Gainesville,US,29.6516,-82.3248,66.09,81,41,4.76,Clear sky
530,Ischia,IT,40.7342,13.9471,53.55,82,93,1.99,Clear sky
531,Talara,PE,-4.5772,-81.2719,71.78,85,39,10.29,broken clouds
532,Perth,AU,-31.9333,115.8333,103.14,15,0,11.5,Clear sky
533,Khanpur,PK,28.6453,70.6567,58.35,39,0,6.51,Clear sky
534,Mangai,CD,-4.05,19.5333,66.51,96,100,2.15,few clouds
535,Miajadas,ES,39.1513,-5.9084,52.83,77,100,1.48,haze
536,Luau,AO,-10.7073,22.2247,62.94,99,100,2.59,Clear sky
537,Ilam,NP,26.9167,87.9167,46.96,87,100,5.57,Clear sky
538,Garowe,SO,8.4054,48.4845,62.82,50,3,6.67,heavy intensity rain
539,Alofi,NU,-19.0595,-169.9187,78.78,80,100,18.66,Clear sky
540,Kawalu,ID,-7.3817,108.2082,88.75,52,30,2.57,Clear sky
541,Roma,US,43.2128,-75.4557,28.96,92,100,5.75,broken clouds
542,Samarkand,UZ,39.6542,66.9597,33.22,69,1,16.11,Clear sky
543,Painesville,US,41.7245,-81.2457,24.08,92,100,15.99,Clear sky
544,Umm Lajj,SA,25.0213,37.2685,66.76,46,0,18.48,few clouds
545,Gazli,UZ,40.1333,63.45,39.49,60,46,11.48,haze
546,Abha,SA,18.2164,42.5053,53.85,52,15,1.83,Clear sky
547,Aguimes,ES,27.9054,-15.4461,66.83,37,0,11.5,Clear sky
548,Yeppoon,AU,-23.1333,150.7333,85.78,79,100,15.55,heavy intensity rain
549,Gonzales,US,30.2385,-90.9201,44.98,95,100,10.36,Clear sky
550,Riyadh,SA,24.6877,46.7219,61.57,36,25,4.92,Clear sky
551,Zhigansk,RU,66.7697,123.3711,-25.37,96,89,3.62,broken clouds
552,Lahad Datu,MY,5.0268,118.327,84.31,65,77,6.8,Clear sky
553,Qaqortoq,GL,60.7167,-46.0333,25.3,95,100,13.44,Clear sky
554,Lat Yao,TH,15.751,99.7893,92.52,49,14,6.26,few clouds
555,Heihe,CN,50.2441,127.4902,3.78,71,28,12.46,haze
556,Nome,US,64.5011,-165.4064,6.17,72,98,32.95,Clear sky
557,Mayya,RU,61.7333,130.2811,-19.08,89,100,6.06,Clear sky
558,San Borja,BO,-14.8167,-66.85,72.43,97,49,3.42,heavy intensity rain
559,Batemans Bay,AU,-35.7167,150.1833,72.19,55,59,12.37,Clear sky
560,Necochea,AR,-38.5473,-58.7368,65.03,95,78,7.16,Clear sky
561,Roald,NO,62.5833,6.1333,39.11,93,100,19.57,broken clouds
562,Limburg,NL,51.25,6,46.87,86,100,3,Clear sky
563,Tahe,CN,52.3333,124.7333,3.85,66,69,12.62,Clear sky
564,Ancud,CL,-41.8697,-73.8203,58.42,96,32,3.83,few clouds
565,Jiehu,CN,35.5428,118.455,38.1,41,82,7.56,haze
566,Odweyne,SO,9.4092,45.064,61.29,33,18,4.03,Clear sky
567,Kasempa,ZM,-13.4584,25.8338,63.28,97,99,7.43,Clear sky
568,Cotonou,BJ,6.3654,2.4183,78.6,83,0,6.91,heavy intensity rain
569,Alice Springs,AU,-23.7,133.8833,78.35,36,98,14.97,Clear sky
570,Teruel,ES,40.6667,-0.6667,40.96,59,76,4.21,Clear sky
571,Bang Saphan,TH,11.2126,99.5117,86.11,59,39,7.16,broken clouds
572,Srandakan,ID,-7.9386,110.2506,79.74,69,98,2.37,Clear sky
573,Lukulu,ZM,-14.3707,23.242,65.12,98,100,4.29,Clear sky
574,Tam Ky,VN,15.5667,108.4833,75.18,80,100,4.18,few clouds
575,Biltine,TD,14.5333,20.9167,61.66,16,3,13.71,haze
576,Jalingo,NG,8.8833,11.3667,68.76,21,6,5.66,Clear sky
577,Asosa,ET,10.0667,34.5333,66.9,27,39,6.42,Clear sky
578,Okha,RU,53.5739,142.9478,4.78,93,100,21.39,heavy intensity rain
579,Sao Jose Da Coroa Grande,BR,-8.8978,-35.1478,78.42,75,95,8.19,Clear sky
580,Inuvik,CA,68.3499,-133.7218,-24.84,68,20,2.3,Clear sky
581,Semirom,IR,31.4167,51.5667,26.58,57,0,4.09,broken clouds
582,Gasa,PS,31.5,34.4667,51.91,62,6,18.5,Clear sky
583,Iqaluit,CA,63.7506,-68.5145,-14.24,85,100,8.25,Clear sky
584,San Rafael Del Sur,NI,11.8485,-86.4384,77.92,64,0,8.14,few clouds
585,Aloja,LV,57.7669,24.8825,19.96,97,74,6.51,haze
586,Bamako,ML,12.65,-8,66.61,26,0,6.91,Clear sky
587,Saucillo,MX,28.0167,-105.2833,38.98,64,0,17.54,Clear sky
588,Pathein,MM,16.7833,94.7333,81.37,28,0,9.4,heavy intensity rain
589,Mizdah,LY,31.4451,12.9801,42.24,86,0,2.84,Clear sky
590,Bonavista,CA,48.6499,-53.1147,39.11,92,100,25.21,Clear sky
591,Seminole,US,28.7086,-81.2081,69.28,90,0,4.61,broken clouds
592,Quatre Cocos,MU,-20.2078,57.7625,81.09,87,99,19.66,Clear sky
593,Nouakchott,MR,18.0858,-15.9785,70.18,26,0,10.65,Clear sky
594,Thio,NC,-21.6167,166.2167,91.36,94,99,6.76,few clouds
595,Peace River,CA,56.2501,-117.286,-5.49,77,100,10.36,haze
596,Bowmore,US,34.9421,-79.3031,65.7,82,75,4,Clear sky
597,Durban,ZA,-29.8579,31.0292,75.92,94,100,7,Clear sky
598,Rockland,US,41.1668,-74.0496,49.8,95,100,2.13,heavy intensity rain
599,Bridlington,GB,54.0831,-0.1919,44.78,80,100,15.43,Clear sky
600,Xinqing,CN,48.2333,129.5,4.33,69,95,8.37,Clear sky
601,Novikovo,RU,51.1537,37.8879,21.67,97,95,4.79,broken clouds
602,Juybar,IR,36.6412,52.9124,52.36,49,0,3.62,Clear sky
603,Kudahuvadhoo,MV,2.6708,72.8944,81.28,72,2,10.31,Clear sky
604,Baie-Comeau,CA,49.2168,-68.1489,-0.6,77,100,7.25,few clouds
605,Yiyang,CN,28.5892,112.3283,46.56,65,26,5.48,haze
606,Chalon-Sur-Saone,FR,46.7833,4.85,42.98,93,22,5.08,Clear sky
607,Horki,BY,54.2861,30.9842,5.05,99,97,6.42,Clear sky
608,Leh,IN,34.1667,77.5833,8.89,94,100,1.43,heavy intensity rain
609,Mandan,US,46.8267,-100.8896,17.58,79,100,23.02,Clear sky
610,Rio Gallegos,AR,-51.6226,-69.2181,46.45,57,75,13.8,Clear sky
611,Boende,CD,-0.2167,20.8667,66.6,94,96,2.55,broken clouds
612,Chapais,CA,49.7834,-74.8492,-26.3,100,40,2.48,Clear sky
613,Araxa,BR,-19.5933,-46.9406,66.72,92,100,1.39,Clear sky
614,Qui Nhon,VN,13.7667,109.2333,72.84,85,100,14.72,few clouds
615,Puerto Narino,CO,-3.7703,-70.3831,76.95,98,87,1.9,haze
616,Fairview,US,40.8126,-73.999,50.58,93,100,0,Clear sky
617,Boulder City,US,35.9786,-114.8325,46.44,23,0,11.5,Clear sky
618,Baghdad,IQ,33.3406,44.4009,57.11,51,75,8.05,heavy intensity rain
619,Srednekolymsk,RU,67.45,153.6833,-30.14,100,37,1.86,Clear sky
620,Prigen,ID,-7.6833,112.6167,76.53,63,96,2.3,Clear sky
621,Iskateley,RU,67.6803,53.1512,2.53,98,100,3.15,broken clouds
622,Tsabong,BW,-26.0217,22.401,68.43,63,5,7.54,Clear sky
623,Gannan,CN,47.9147,123.5031,7.23,65,0,10.54,Clear sky
624,Weihai,CN,37.5017,122.1136,28.26,66,99,12.48,few clouds
625,Lishui,CN,28.4604,119.9103,40.41,98,100,2.82,haze
626,Amot,NO,59.5714,7.9877,30.51,97,100,7.36,Clear sky
627,Kohlu,PK,29.8962,69.252,49.91,15,0,2.21,Clear sky
628,High Level,CA,58.5169,-117.136,-13.16,97,100,4.59,heavy intensity rain
629,Banjar,ID,-8.19,114.9675,80.46,61,87,5.32,Clear sky
630,Dakar,SN,14.6937,-17.4441,70.68,62,0,7.43,Clear sky
631,Vanimo,PG,-2.6741,141.3028,85.46,65,55,5.08,broken clouds
632,Ewo,CG,-0.8725,14.8206,73.26,84,100,2.68,Clear sky
633,Kapit,MY,2.0167,112.9333,86.54,66,100,1.48,Clear sky
634,Boa Vista,BR,2.8197,-60.6733,82.38,61,0,9.22,few clouds
635,Esmeraldas,BR,-19.7625,-44.3139,70.66,93,91,2.37,haze
636,Beyneu,KZ,45.3167,55.2,36.64,70,100,22.08,Clear sky
637,Tilichiki,RU,60.4667,166.1,4.64,82,100,9.1,Clear sky
638,Valea Ierii,RO,46.65,23.35,13.03,84,98,3.22,heavy intensity rain
639,Bahia De Caraquez,EC,-0.6,-80.4167,77.18,81,86,8.12,Clear sky
640,Korla,CN,41.7597,86.1469,27.93,39,100,7.09,Clear sky
641,Sambava,MG,-14.2667,50.1667,76.24,84,100,5.32,broken clouds
642,Savannakhet,LA,16.566,104.751,79.99,45,87,14.94,Clear sky
643,Panzhihua,CN,26.5851,101.7128,59.13,46,3,0.49,Clear sky
644,Deputatskiy,RU,69.3,139.9,-23.82,98,49,1.5,few clouds
645,Mehran,IR,33.1222,46.1646,58.93,36,24,13.15,haze
646,Kaseda,JP,31.4167,130.3167,50.85,53,47,19.82,Clear sky
647,Goundam,ML,16.4145,-3.6708,62.78,14,1,10.45,Clear sky
648,Mongoumba,CF,3.6415,18.5936,66.88,40,63,1.48,heavy intensity rain
649,Taltal,CL,-25.4,-70.4833,67.01,74,0,3.78,Clear sky
650,San Luis,AR,-33.295,-66.3356,61.93,91,77,15.93,Clear sky
651,Yichang,CN,30.7144,111.2847,49.39,39,3,3.18,broken clouds
652,Jijiga,ET,9.35,42.8,55.17,13,11,5.57,Clear sky
653,The Valley,AI,18.217,-63.0578,77.83,74,12,15.39,Clear sky
654,Pisco,PE,-13.7,-76.2167,69.85,73,0,6.91,few clouds
655,Hambantota,LK,6.1241,81.1185,80.94,89,20,2.3,haze
656,Jalu,LY,29.0331,21.5482,49.32,63,6,12.06,Clear sky
657,Jiwani,PK,25.05,61.7417,69.82,41,0,5.12,Clear sky
658,Eyl,SO,7.9803,49.8164,70.14,69,1,11.12,heavy intensity rain
659,Hamada,JP,34.8833,132.0833,40.84,56,84,19.35,Clear sky
660,Yaan,NG,7.3833,8.5667,75.31,14,7,9.24,Clear sky
661,Leshukonskoye,RU,64.8989,45.7622,-4.25,100,91,1.81,broken clouds
662,Teguldet,RU,57.3064,88.1667,14.76,93,99,7.47,Clear sky
663,Kang,BW,-23.6752,22.7876,66.45,84,100,5.37,Clear sky
664,Abu Samrah,SY,35.3029,37.1841,42.76,94,99,2.53,few clouds
665,Aloleng,PH,16.1307,119.7824,84.24,63,14,9.78,haze
666,Ozark,US,37.0209,-93.206,16.29,90,100,1.01,Clear sky
667,Itaguai,BR,-22.8522,-43.7753,76.68,95,88,2.3,Clear sky
668,Urucara,BR,-2.5364,-57.76,73.35,93,44,0.63,heavy intensity rain
669,Erenhot,CN,43.6475,111.9767,6.66,69,11,7.65,Clear sky
670,Ulladulla,AU,-35.35,150.4667,71.1,64,87,13.33,Clear sky
671,Egvekinot,RU,66.3167,-179.1667,-7.29,73,1,17.96,broken clouds
672,Gorontalo,ID,0.5412,123.0595,84.56,70,100,5.95,Clear sky
673,Thyboron,DK,56.6985,8.2124,45.21,94,100,26.89,Clear sky
674,Mount Isa,AU,-20.7333,139.5,85.77,32,100,12.66,few clouds
675,Gazanjyk,TM,39.2446,55.5154,46.87,40,43,1.23,haze
676,Huilong,CN,31.8111,121.655,45.99,47,5,8.75,Clear sky
677,Shwebo,MM,22.5667,95.7,73.51,39,0,3.24,Clear sky
678,Vangaindrano,MG,-23.35,47.6,75.69,90,95,9.37,heavy intensity rain
679,Mao,ES,39.8885,4.2658,48.76,100,0,1.14,Clear sky
680,Viloco,BO,-16.95,-67.55,45.14,94,56,4.47,Clear sky
681,Gereykhanovskoye,RU,41.7011,48.2811,37.33,73,70,1.1,broken clouds
682,Taian,CN,36.1853,117.12,37.98,34,72,8.05,Clear sky
683,Sand,DE,50,10.6,42.85,97,100,6.4,Clear sky
684,Voghera,IT,44.9947,9.0086,53.55,94,100,2.55,few clouds
685,Windhoek,NA,-22.5594,17.0832,66.11,74,69,1.99,haze
686,Phetchabun,TH,16.25,101.0833,90.45,46,81,5.5,Clear sky
687,Ginda,IN,30.6945,78.4932,34.77,80,95,1.48,Clear sky
688,Kumla,SE,59.1277,15.1434,35.82,93,100,5.75,heavy intensity rain
689,Sumbe,AO,-11.2061,13.8437,73.18,83,92,4.72,Clear sky
690,Tezu,IN,27.9167,96.1667,70.63,33,62,2.15,Clear sky
691,Mama,RU,58.3106,112.8986,8.42,92,100,4.79,broken clouds
692,Turayf,SA,31.6725,38.6637,42.4,76,48,9.24,Clear sky
693,Pijijiapan,MX,15.7011,-93.23,72.16,78,0,4.16,Clear sky
694,Manokwari,ID,-0.8667,134.0833,81.43,75,96,4.61,few clouds
695,Sao Miguel Do Araguaia,BR,-13.275,-50.1628,72.61,91,2,2.19,haze
696,Mastic Beach,US,40.7668,-72.8521,51.42,89,100,1.99,Clear sky
697,Madaoua,NE,14.073,5.96,56.86,18,0,17.18,Clear sky
698,Galesong,ID,-5.3166,119.3661,86.02,70,87,10.65,heavy intensity rain
699,Peniche,PT,39.3558,-9.3811,56.62,84,98,7.38,Clear sky
700,Ouango,CF,4.3133,22.5552,70.21,42,98,0.43,Clear sky
701,Vytegra,RU,61.0064,36.4481,-4.88,100,97,2.3,broken clouds
702,Tongliao,CN,43.6125,122.2653,8.42,69,7,10.8,Clear sky
703,Aksarka,RU,66.5606,67.7975,-11.27,100,98,1.07,Clear sky
704,Saint-Malo,FR,48.5,-1.8333,46.35,86,100,10.49,few clouds
705,Wadena,US,46.4425,-95.1361,-2.42,64,100,5.75,haze
706,Lodja,CD,-3.4833,23.4333,67.28,92,100,1.5,Clear sky
707,Baghmara,IN,23.795,86.2085,69.85,70,100,13.62,Clear sky
708,Natal,BR,-5.795,-35.2094,79.45,83,20,5.75,heavy intensity rain
709,Cam Ranh,VN,11.9214,109.1591,78.76,69,40,16.11,Clear sky
710,Tabuk,PH,17.4189,121.4443,79.36,72,68,5.14,Clear sky
711,Gornopravdinsk,RU,60.05,69.9,23.32,95,100,8.57,broken clouds
712,Tulum,MX,20.2167,-87.4667,75.25,87,0,7.63,Clear sky
713,Yantal,RU,56.8471,105.2542,8.74,89,100,5.32,Clear sky
714,Easley,US,34.8298,-82.6015,63.99,98,100,5.75,few clouds
715,Aurillac,FR,44.9167,2.45,37.65,98,100,3.44,haze
716,Batagay,RU,67.6333,134.6333,-28.53,98,63,0.87,Clear sky
717,Takaka,NZ,-40.85,172.8,69.98,97,100,8.1,Clear sky
718,Abrau-Dyurso,RU,44.69,37.59,35.06,92,100,11.63,heavy intensity rain
719,Ocos,GT,14.5094,-92.1933,80.31,71,21,6.71,Clear sky
720,Alamogordo,US,32.8995,-105.9603,20.95,85,0,3.44,Clear sky
721,Celestun,MX,20.8667,-90.4,78.76,64,0,7.65,broken clouds
722,Ashqelon,IL,31.6693,34.5715,53.4,62,15,22.17,Clear sky
723,Marsa Matruh,EG,31.3525,27.2453,55.8,68,88,32.97,Clear sky
724,Bafra,TR,41.5678,35.9069,45.82,97,100,17.11,few clouds
725,Kindu,CD,-2.95,25.95,66.85,100,100,1.9,haze
726,Bandarbeyla,SO,9.4942,50.8122,73.51,68,4,13.02,Clear sky
727,Port-Gentil,GA,-0.7193,8.7815,79.54,79,100,6.35,Clear sky
728,Pires Do Rio,BR,-17.2997,-48.2794,67.77,91,83,1.12,heavy intensity rain
729,Kjollefjord,NO,70.9457,27.3465,13.82,85,0,5.75,Clear sky
730,Los Llanos De Aridane,ES,28.6585,-17.9182,61.12,64,0,13,Clear sky
731,Bilibino,RU,68.0546,166.4372,-5.73,69,0,4.43,broken clouds
732,Victor Harbor,AU,-35.5667,138.6167,79.81,62,0,1.99,Clear sky
733,Shevchenkove,UA,49.6959,37.1735,29.98,96,100,7.43,Clear sky
734,Kutum,SD,14.2,24.6667,55.31,19,7,14.36,few clouds
735,Cedral,MX,23.8,-100.7333,61.9,42,100,8.28,haze
736,Guerrero Negro,MX,27.9769,-114.0611,58.03,29,0,14.18,Clear sky
737,Lorengau,PG,-2.0226,147.2712,84.43,62,100,9.15,Clear sky
738,Santol,PH,15.1622,120.5675,88,45,49,9.37,heavy intensity rain
739,Salym,RU,60.0625,71.4789,23.04,93,100,9.06,Clear sky
740,Lhokseumawe,ID,5.1801,97.1507,84.06,67,71,3.85,Clear sky
741,Bulungu,CD,-4.55,18.6,67.64,97,100,2.24,broken clouds
742,La Ronge,CA,55.1001,-105.2842,-19.75,99,43,6.62,Clear sky
743,Kijang,KR,35.2442,129.2139,39.15,37,3,12.97,Clear sky
744,Grand-Lahou,CI,5.1367,-5.0242,77.52,87,5,4.92,few clouds
745,Akyab,MM,20.15,92.9,73.98,43,0,4.47,haze
746,Simao,CN,22.7886,100.9748,68.27,31,0,3.22,Clear sky
747,Bowling Green,US,36.9903,-86.4436,33.66,88,100,6.91,Clear sky
748,Gimbi,ET,9.1667,35.8333,61.84,42,96,0.83,heavy intensity rain
749,Kribi,CM,2.95,9.9167,78.42,82,91,5.35,Clear sky
750,Phuket,TH,8,98.25,87.1,66,20,14.97,Clear sky
751,Hukuntsi,BW,-24,21.75,68.04,69,15,8.16,broken clouds
752,Mizque,BO,-17.941,-65.3402,61.23,86,90,2.98,Clear sky
753,Magan,ES,39.9683,-3.931,51.46,78,100,6.33,Clear sky
754,Touros,BR,-5.1989,-35.4608,79.7,75,50,12.93,few clouds
755,Kinablangan,PH,7.6947,126.5503,74.64,94,100,2.98,haze
756,Hobyo,SO,5.3505,48.5268,75.36,73,65,16.33,Clear sky
757,Kama,RU,56.3051,54.0936,29.7,98,100,5.75,Clear sky
758,Emba,KZ,48.8264,58.1442,21.36,80,99,13.2,heavy intensity rain
759,Mayumba,GA,-3.432,10.6554,74.84,89,100,3.11,Clear sky
760,Mukdahan,TH,16.5833,104.5,79.5,46,99,15.19,Clear sky
761,Benjamin Constant,BR,-4.3831,-70.0311,77.13,98,84,1.12,broken clouds
762,Ust-Tsilma,RU,65.441,52.1498,9,98,100,3.27,Clear sky
763,Manica,FR,49,-1.1667,45.81,77,100,10.65,Clear sky
764,Yenotayevka,RU,47.2456,47.0281,30.04,92,100,1.25,few clouds
765,Petropavlovsk-Kamchatskiy,RU,53.0452,158.6483,30.79,47,75,13.42,haze
766,Healesville,AU,-37.65,145.5167,79.9,49,16,5.01,Clear sky
767,Parfenyevo,RU,58.484,43.4088,0.5,100,96,2.13,Clear sky
768,Northam,GB,51.0333,-4.2167,51.03,95,100,24.45,heavy intensity rain
769,Santa Cruz De Tenerife,ES,28.4682,-16.2546,72.28,59,85,1.99,Clear sky
770,Flin Flon,CA,54.7682,-101.865,-18.92,97,25,5.86,Clear sky
771,Darab,IR,28.7519,54.5444,52.16,27,0,1.52,broken clouds
772,Hwange,ZW,-18.3693,26.5019,67.62,89,53,1.79,Clear sky
773,Kaniama,CD,-7.5667,24.1833,63.63,98,99,1.97,Clear sky
774,Westfield,US,42.1251,-72.7495,48.24,96,100,1.99,few clouds
775,Coahuayana,MX,18.7333,-103.6833,67.19,78,26,4.05,haze
776,Usinsk,RU,65.9939,57.5281,14.02,96,100,8.23,Clear sky
777,Beringovskiy,RU,63.05,179.3167,-0.42,79,100,18.1,Clear sky
778,Udachnyy,RU,66.4167,112.4,-21.57,99,96,2.28,heavy intensity rain
779,Atar,MR,20.5169,-13.0499,64.8,16,0,6.69,Clear sky
780,Hoquiam,US,46.9809,-123.8893,45.95,98,100,4.61,Clear sky
781,Cap Malheureux,MU,-19.9842,57.6142,81.46,84,100,11.99,broken clouds
782,Lompoc,US,34.6391,-120.4579,52.92,81,0,0,Clear sky
783,Pierre,US,44.3683,-100.351,15.28,61,20,4.61,Clear sky
784,Muyinga,BI,-2.8333,30.3333,56.43,95,100,1.61,few clouds
785,El Dorado,US,38.7666,-120.5177,43.86,65,17,9.48,haze
786,Gimli,CA,50.6336,-96.9907,-3.87,98,100,8.39,Clear sky
787,Cobh,IE,51.8572,-8.2992,40.24,91,40,1.01,Clear sky
788,Zaraza,VE,9.3503,-65.3245,76.91,78,89,9.91,heavy intensity rain
789,Khorixas,NA,-20.3667,14.9667,64.74,60,40,5.28,Clear sky
790,Bilma,NE,18.6853,12.9164,50.23,34,0,11.36,Clear sky
791,Orel-Izumrud,RU,43.4583,39.9244,46.42,65,100,8.99,broken clouds
792,Aasiaat,GL,68.7098,-52.8699,12.09,78,100,23.64,Clear sky
793,Gamba,GA,-2.65,10,73.81,89,100,3.09,Clear sky
794,Ondjiva,AO,-17.0667,15.7333,70.57,44,92,5.64,few clouds
795,Bowen,AU,-20.0167,148.2333,82.08,77,100,1.86,haze
796,Kourou,GF,5.1552,-52.6478,79.11,93,99,6.76,Clear sky
797,Guiren,CN,33.6697,118.1889,45.48,38,0,7.16,Clear sky
798,Luwuk,ID,-0.9516,122.7875,88.97,58,99,1.99,heavy intensity rain
799,Koumra,TD,8.9126,17.5539,69.98,13,27,7.72,Clear sky
800,Nanakuli,US,21.3906,-158.1547,76.98,53,0,9.22,Clear sky
801,Kaberamaido,UG,1.7389,33.1594,69.04,55,94,3.49,broken clouds
802,Rodrigues Alves,BR,-7.738,-72.6509,72.1,96,81,2.62,Clear sky
803,Nhulunbuy,AU,-12.2333,136.7667,86.11,68,100,13.44,Clear sky
804,Puerto Leguizamo,CO,-0.1934,-74.7819,73.13,96,95,2.66,few clouds
805,Zgierz,PL,51.8556,19.4062,38.25,94,100,1.99,haze
806,Puerto Colombia,CO,10.9878,-74.9547,78.89,83,0,29.86,Clear sky
807,Bandundu,CD,-3.3167,17.3667,71.11,94,100,3.29,Clear sky
808,Te Anau,NZ,-45.4167,167.7167,48.38,97,100,3.69,heavy intensity rain
809,Lincoln,US,40.8,-96.667,12.16,54,0,1.36,Clear sky
810,Matara,LK,5.9485,80.5353,81.55,65,5,4.43,Clear sky
811,Fryanovo,RU,56.1333,38.45,19.72,98,100,3.22,broken clouds
812,Victoria Point,AU,-27.5833,153.3,82.26,63,43,13,Clear sky
813,Puerto Madryn,AR,-42.7692,-65.0385,71.78,53,100,16.8,Clear sky
814,Macklin,CA,52.3334,-109.9348,-13.04,95,98,0.96,few clouds
815,Salinas,US,36.6777,-121.6555,55.36,76,0,3.44,haze
816,Jeremie,HT,18.65,-74.1167,75.72,81,1,5.88,Clear sky
817,Fallon,US,39.4735,-118.7774,32.27,53,0,1.28,Clear sky
818,Mangrul Pir,IN,20.3167,77.35,69.31,25,12,12.88,heavy intensity rain
819,Rio Cuarto,AR,-33.1307,-64.3499,72.68,75,10,7.27,Clear sky
820,Robe,AU,-37.1833,139.75,64.45,66,4,22.35,Clear sky
821,Champerico,GT,14.3,-91.9167,80.35,70,13,6.69,broken clouds
822,Charters Towers,AU,-20.1,146.2667,80.62,62,100,12.62,Clear sky
823,Sovetskiy,RU,61.3614,63.5842,13.91,97,99,3.42,Clear sky
824,Bodo,NO,67.28,14.405,23.04,68,75,47.18,few clouds
825,Arlit,NE,18.7369,7.3853,53.71,20,3,6.44,haze
826,Alvorada,BR,-12.48,-49.1247,72.68,92,0,3.31,Clear sky
827,Sunrise Manor,US,36.2111,-115.0731,48.9,25,0,5.99,Clear sky
828,Eureka,US,40.8021,-124.1637,44.26,86,1,5.12,heavy intensity rain
829,Inyonga,TZ,-6.7167,32.0667,63.45,96,100,1.95,Clear sky
830,Goderich,CA,43.7501,-81.7165,14.92,87,100,15.7,Clear sky
831,Moncao,PT,42.0789,-8.4808,53.15,79,100,2.15,broken clouds
832,Oron,NG,4.8256,8.2343,76.73,82,41,2.08,Clear sky
833,Yuli,NG,9.6989,10.2744,64.47,21,14,8.79,Clear sky
834,Romanovka,RU,51.7443,42.7527,29.07,96,100,9.01,few clouds
835,Maryborough,AU,-25.5333,152.7,84.78,47,63,14.09,haze
836,Pimentel,PE,-6.8367,-79.9342,70.14,84,60,11.34,Clear sky
837,Gander,CA,48.9682,-54.5906,37.53,93,100,10,Clear sky
838,High Rock,BS,26.6208,-78.2833,73.42,69,0,16.55,heavy intensity rain
839,Namibe,AO,-15.1961,12.1522,70.29,78,14,4.85,Clear sky
840,Rudnichnyy,RU,59.617,52.4703,-4.23,100,100,1.68,haze
841,Petawawa,CA,45.9001,-77.3328,7.79,75,100,4,Clear sky
842,Madang,PG,-5.2246,145.7966,86.18,64,98,7.92,Clear sky
843,Scarborough,GB,54.2797,-0.4044,43.54,85,100,1.01,heavy intensity rain
844,Nguru,NG,12.8791,10.4526,55.87,18,0,11.86,Clear sky
845,Candido Mendes,BR,-1.4467,-45.7167,74.89,92,100,3.31,Clear sky
846,Tokmak,UA,47.2514,35.7058,27.86,95,100,10.56,broken clouds
847,Fuling,CN,29.7022,107.3919,51.42,54,87,2.06,Clear sky
848,San Vicente De Canete,PE,-13.0751,-76.3835,70.32,83,24,1.88,Clear sky
849,Curup,ID,-3.4667,102.5333,74.48,90,90,0.83,few clouds
850,Pyshchug,RU,58.8873,45.7134,14.61,95,100,1.74,haze
851,Odienne,CI,9.51,-7.5692,66.22,16,0,3.62,Clear sky
852,Phanat Nikhom,TH,13.4458,101.1844,92.12,91,38,10.69,Clear sky
853,Murgab,TM,37.4966,61.9714,46.83,49,100,18.23,heavy intensity rain
854,La Reforma,MX,25.0833,-108.05,61.75,52,0,12.01,Clear sky
855,Winnemucca,US,40.973,-117.7357,30.25,59,0,6.91,Clear sky
856,San Cristobal,VE,7.7669,-72.225,73.58,67,84,0.69,broken clouds
857,Illela,NG,13.7292,5.2975,59.83,17,0,17.25,Clear sky
858,Hamadan,IR,34.7992,48.5146,37,76,43,9.51,Clear sky
859,Palimbang,PH,6.2106,124.1894,83.88,67,93,5.26,few clouds
860,El Alto,PE,-4.2714,-81.2147,70.05,81,58,14.25,haze
861,Areka,ET,7.0667,37.7,57.76,53,94,5.39,Clear sky
862,Mantua,IT,45.1667,10.7833,46.27,88,82,1.99,Clear sky
863,Belmonte,BR,-15.8631,-38.8828,79.3,82,86,4.29,heavy intensity rain
864,Jizan,SA,17.3333,42.6667,76.57,82,74,5.53,Clear sky
865,Luanda,AO,-8.8368,13.2343,74.75,82,100,7.74,Clear sky
866,Kiama,AU,-34.6833,150.8667,77.38,58,78,1.99,broken clouds
867,Opuwo,NA,-18.0607,13.84,62.96,57,3,4.47,Clear sky
868,Polovinnoye,RU,54.7914,65.9864,19.27,83,100,15.08,Clear sky
869,Estepona,ES,36.4276,-5.1459,62.51,46,61,7.02,few clouds
870,Jacareacanga,BR,-6.2222,-57.7528,73.62,92,100,0.65,haze
871,Jackson,US,42.4165,-122.8345,42.8,70,0,0,Clear sky
872,Tommot,RU,58.9564,126.2925,-4.92,89,100,8.19,Clear sky
873,Port-Cartier,CA,50.0334,-66.8654,2.75,77,100,6.82,heavy intensity rain
874,Nampula,MZ,-15.1165,39.2666,70.7,92,91,2.33,Clear sky
875,North Platte,US,41.1239,-100.7654,10.29,67,0,5.75,Clear sky
876,Takoradi,GH,4.8845,-1.7554,77.74,84,2,5.14,broken clouds
877,Kautokeino,NO,69.0125,23.0412,-1.43,100,99,4.16,Clear sky
878,Pechenga,RU,69.5259,31.1703,0.46,98,100,4.88,Clear sky
879,Isla Vista,US,34.4133,-119.861,56.68,55,0,0,few clouds
880,Sisimiut,GL,66.9395,-53.6735,10.26,76,88,27.36,haze
881,Santa Maria,BR,-29.6842,-53.8069,69.42,97,100,1.72,Clear sky
882,Colonia,DE,50.9333,6.95,46.96,79,75,1.01,Clear sky
883,Ballina,AU,-28.8667,153.5667,75.24,81,69,23.87,heavy intensity rain
884,Hirara,JP,24.8,125.2833,66.47,94,75,19.57,Clear sky
885,Kidal,ML,18.4411,1.4078,56.21,18,0,14.97,Clear sky
886,Talaya,RU,61.3833,152.75,-14.44,95,47,5.73,broken clouds
887,Pedernales,DO,18.0384,-71.744,75.79,72,10,3.96,Clear sky
888,Dubrovnik,HR,42.6481,18.0922,46.04,36,0,4.61,Clear sky
889,Georgiyevskoye,RU,58.731,45.024,3.51,100,98,0.63,few clouds
890,Puerto Baquerizo Moreno,EC,-0.9,-89.6,74.66,85,6,7.74,haze
891,Conceicao Do Araguaia,BR,-8.2578,-49.2647,72.88,94,67,3.38,Clear sky
892,Muravlenko,RU,63.7898,74.523,16.65,96,100,5.91,Clear sky
893,Kaeo,NZ,-35.1,173.7833,76.32,84,96,9.4,heavy intensity rain
894,Gondanglegi,ID,-7.7479,112.0132,85.26,67,100,1.83,Clear sky
895,Byron Bay,AU,-28.65,153.6167,77.88,77,75,23.13,Clear sky
896,Lanzhou,CN,36.0564,103.7922,27.37,38,98,2.08,broken clouds
897,Maraba,BR,-5.3686,-49.1178,77.18,100,0,3.44,Clear sky
898,Moose Factory,CA,51.2585,-80.6094,-23.62,100,10,4.34,Clear sky
899,Karakol,KG,42.4907,78.3936,21.63,92,99,0.92,few clouds
900,Wewak,PG,-3.5534,143.6268,85.77,65,54,11.65,haze
901,Batu,ID,-7.87,112.5283,75.74,64,100,3.47,Clear sky
902,Tsumeb,NA,-19.2333,17.7167,68.65,75,93,2.66,Clear sky
903,Chlorakas,CY,34.8042,32.4083,49.08,90,75,4.61,heavy intensity rain
904,Ulundi,ZA,-28.3352,31.4162,70.65,94,100,7.18,Clear sky
905,Ekangala,ZA,-25.6962,28.7492,67.3,88,11,6.82,Clear sky
906,Basse,DE,52.5518,9.5069,45.19,90,75,12.66,broken clouds
907,Zambezi,ZM,-13.5432,23.1047,64.04,99,100,3.53,Clear sky
908,Ratholo,BW,-22.7245,27.572,71.74,76,4,6.91,Clear sky
909,Harper,LR,4.375,-7.7169,77.18,85,16,2.17,few clouds
910,Ojuelos De Jalisco,MX,21.8667,-101.5833,54.72,40,99,7.43,haze
911,Werda,BW,-25.2667,23.2833,68.02,80,100,6.64,Clear sky
912,Kuytun,RU,54.3419,101.5036,3.67,92,81,2.28,Clear sky
913,Muncar,ID,-8.4333,114.3333,87.64,59,97,9.04,heavy intensity rain
914,Tigil,RU,57.8,158.6667,13.86,92,73,2.13,Clear sky
915,Pucallpa,PE,-8.3791,-74.5539,75.24,100,75,3.44,Clear sky
916,Luena,AO,-11.7833,19.9167,61.27,99,100,3.69,broken clouds
917,Kedrovyy,RU,56.1667,91.8167,0.01,91,100,5.93,Clear sky
918,Kailua,US,21.4022,-157.7394,77.02,70,75,4.61,Clear sky
919,Moberly,US,39.4184,-92.4382,15.22,69,0,6.91,few clouds
920,Gornyy,RU,55.1153,83.9059,5.02,98,88,6.87,haze
921,George,ZA,-33.963,22.4617,60.35,94,100,2.3,Clear sky
922,Chake Chake,TZ,-5.2459,39.7666,78.1,83,100,6.71,Clear sky
923,Santa Isabel Do Rio Negro,BR,-0.4139,-65.0192,73.29,96,99,1.28,heavy intensity rain
924,Badvel,IN,14.75,79.05,77.72,63,58,3.8,Clear sky
925,Csolnok,HU,47.6912,18.7161,36.84,83,100,6.78,Clear sky
926,Jinan,CN,36.6683,116.9972,35.06,29,16,10.36,broken clouds
927,Savonlinna,FI,61.8699,28.88,1.26,92,100,2.3,Clear sky
928,Sikonge,TZ,-5.6333,32.7667,63.03,98,100,2.77,Clear sky
929,Stowe,US,40.2526,-75.6774,56.01,96,100,3,few clouds
930,Yanliang,CN,34.6592,109.2292,43.48,26,32,5.79,haze
931,Zemio,CF,5.0314,25.1361,71.24,35,97,1.86,Clear sky
932,Nabire,ID,-3.3667,135.4833,80.24,85,97,5.93,Clear sky
933,Abu Zabad,SD,12.35,29.25,68.04,19,100,16.98,heavy intensity rain
934,Aracati,BR,-4.5617,-37.7697,78.66,81,100,8.68,Clear sky
935,West Bay,KY,19.3667,-81.4167,78.08,90,20,1.99,Clear sky
936,Vao,NC,-22.6667,167.4833,75.29,92,100,3.94,broken clouds
937,Hagdan,PH,11.3333,123.9,77.95,81,97,15.01,Clear sky
938,Pandan,PH,14.0453,124.1694,77.99,90,100,12.71,Clear sky
939,Mitchell,US,43.7094,-98.0298,10.38,47,0,3,few clouds
940,Desaguadero,PE,-16.5656,-69.0417,43.12,86,78,7.67,haze
941,Koslan,RU,63.4564,48.8989,2.32,99,92,2.62,Clear sky
942,Ha Tinh,VN,18.3333,105.9,60.06,82,100,8.1,Clear sky
943,Keuruu,FI,62.2667,24.7,14.18,100,100,4.34,heavy intensity rain
944,Coro,VE,11.4045,-69.6734,75.15,88,13,13.06,Clear sky
945,Nyrad,DK,55.0051,11.9606,43.7,94,100,16.22,Clear sky
946,Makat,KZ,47.6469,53.3463,33.48,77,100,21.52,broken clouds
947,Medowie,AU,-32.7333,151.8667,73.98,72,75,20.71,Clear sky
948,Nagornyy,RU,52.7959,83.5498,6.15,98,97,3.02,Clear sky
949,Pacific Grove,US,36.6177,-121.9166,54.95,84,0,1.99,few clouds
950,Dinklage,DE,52.65,8.1167,44.82,86,100,5.01,haze
951,Marsh Harbour,BS,26.5412,-77.0636,73.65,60,23,16.46,Clear sky
952,Wokha,IN,26.1,94.2667,48.11,52,49,2.53,Clear sky
953,El Sauzal,MX,31.9,-116.6833,54.7,36,0,6.17,heavy intensity rain
954,Kumluca,TR,36.3703,30.2869,49.68,71,99,7.92,Clear sky
955,Leesburg,US,39.1157,-77.5636,59.97,99,100,9.22,Clear sky
956,Ogori,JP,34.1,131.4,46.26,43,10,15.17,broken clouds
957,Karacabey,TR,40.2152,28.4038,41.45,79,57,11.34,Clear sky
958,Gorlev,DK,55.5393,11.2271,43.09,94,100,16.2,Clear sky
959,Hoi An,VN,15.8794,108.335,75.16,80,100,5.41,few clouds
960,Svarstad,NO,59.399,9.9698,42.94,91,100,12.35,haze
961,Agadir,MA,30.4202,-9.5982,64.85,42,88,8.08,Clear sky
962,Nago,JP,26.5881,127.9761,64.47,85,100,18.12,Clear sky
963,Ojinaga,MX,29.5667,-104.4167,33.57,59,100,6.91,heavy intensity rain
964,Caconda,AO,-13.7333,15.0667,57.04,85,100,2.37,Clear sky
965,Pangai,TO,-19.8,-174.35,81.99,76,100,17.67,Clear sky
966,Payson,US,40.0444,-111.7321,23.41,71,40,10.36,broken clouds
967,Antonio Escobedo,MX,20.8,-104.0167,64.54,58,99,3.24,Clear sky
968,Gorin,RU,51.1983,136.6669,0.88,88,100,0.85,Clear sky
969,Miandoab,IR,36.9694,46.1027,23.47,81,8,3.74,few clouds
970,Biu,NG,10.6129,12.1946,59.43,21,11,8.95,haze
971,Waiuku,NZ,-37.25,174.75,81.97,70,6,11.01,Clear sky
972,Tigzirt,DZ,36.8886,4.1198,57.52,48,84,7.99,Clear sky
973,Ekhabi,RU,53.5102,142.9671,4.39,94,100,21.99,heavy intensity rain
974,Trapani,IT,37.8333,12.6667,55.58,55,14,9.46,Clear sky
975,Bandiagara,ML,14.3501,-3.6104,66.18,14,1,11.16,Clear sky
976,Sao Felix Do Xingu,BR,-6.6447,-51.995,70.16,96,3,0.89,broken clouds
977,Jumla,NP,29.2747,82.1838,35.69,91,100,6.89,Clear sky
978,Abonnema,NG,4.7084,6.7931,77.74,82,10,4.36,Clear sky
979,Kandrian,PG,-6.2167,149.55,89.11,58,75,18.28,few clouds
980,Vilcun,CL,-38.65,-72.2333,53.33,97,71,0.54,haze
981,Kangaatsiaq,GL,68.3065,-53.4641,10.13,82,100,27.13,Clear sky
982,Troitsko-Pechorsk,RU,62.7084,56.1964,12.43,96,100,5.03,Clear sky
983,Batsfjord,NO,70.6345,29.7185,14.22,89,99,8.39,heavy intensity rain
984,Marathon,US,44.9,-89.7668,-4.47,74,0,0,Clear sky
985,Sri Aman,MY,1.2376,111.4621,81.03,87,98,1.86,Clear sky
986,Medea,DZ,36.2642,2.7539,34.25,39,55,7.43,broken clouds
987,Shetpe,KZ,44.1667,52.1167,39.31,60,100,12.28,Clear sky
988,Corbelia,BR,-24.7989,-53.3067,68.25,98,100,4.47,Clear sky
989,Ananas,HT,19.2466,-71.9557,65.41,93,13,4.63,few clouds
990,Arkadelphia,US,34.1209,-93.0538,27.99,93,100,10.36,haze
991,Nouadhibou,MR,20.931,-17.0347,66.09,69,21,9.93,Clear sky
992,Guarapari,BR,-20.6667,-40.4975,75.09,90,100,3.11,Clear sky
993,Mayor Pablo Lagerenza,PY,-19.9309,-60.7718,82.94,58,0,12.06,heavy intensity rain
994,Hvide Sande,DK,56.0045,8.1294,45.19,91,100,27.38,Clear sky
995,Fremont,US,37.5483,-121.9886,55.6,72,0,1.99,Clear sky
996,Juegang,CN,32.3174,121.1855,43.81,42,3,8.34,broken clouds
997,Jaru,BR,-10.4389,-62.4664,73.08,96,91,1.01,Clear sky
998,Cintalapa,MX,16.6951,-93.7272,62.62,94,3,0.94,Clear sky
999,Inhambane,MZ,-23.865,35.3833,77.11,84,4,0.31,few clouds
1000,Kibungo,RW,-2.1597,30.5427,63.52,93,100,0.45,haze
1001,La Motte-Servolex,FR,45.5942,5.8758,44.46,100,100,3.44,Clear sky
1002,Puerto Carreno,CO,6.189,-67.4859,76.91,75,56,3.94,Clear sky
1003,Morehead,US,37.2711,-87.1764,27,96,100,1.99,heavy intensity rain
1004,Baykit,RU,61.67,96.37,14.43,94,100,4.21,Clear sky
1005,Vung Tau,VN,10.346,107.0843,82.11,69,14,11.34,Clear sky
1006,Tabora,TZ,-5.0167,32.8,62.1,98,100,2.35,broken clouds
1007,Lata,PT,40.1629,-8.3327,47.07,97,98,1.1,Clear sky
1008,Chegutu,ZW,-18.1302,30.1407,64.04,92,78,0.78,Clear sky
1009,Carballo,ES,43.213,-8.691,52.86,92,100,2.62,few clouds
1010,Varadero,CU,23.1536,-81.2514,72.36,86,0,17.02,haze
1011,Thinadhoo,MV,0.5333,72.9333,82.06,70,81,8.61,Clear sky
1012,Kabelvag,NO,68.2114,14.4817,22.12,72,100,21.16,Clear sky
1013,Muros,ES,42.7762,-9.0603,53.24,94,100,5.12,heavy intensity rain
1014,Clevelandia,BR,-26.3958,-52.4708,66.02,99,100,5.64,Clear sky
1015,Tirumakudal Narsipur,IN,12.21,76.9064,69.24,50,8,5.01,Clear sky
1016,Farafangana,MG,-22.8167,47.8333,76.98,88,99,12.8,broken clouds
1017,Synya,RU,65.3718,58.0387,14.61,96,100,5.32,Clear sky
1018,Kholtoson,RU,50.2981,103.3097,11.43,71,100,2.68,Clear sky
1019,High Prairie,CA,55.4334,-116.4858,-0.13,97,100,7.27,few clouds
1020,Bamenda,CM,5.9527,10.1582,63.91,29,75,0.22,haze
1021,Tarakan,ID,3.3,117.6333,85.5,66,40,8.05,Clear sky
1022,Manali,IN,13.1667,80.2667,80.69,79,20,8.12,Clear sky
1023,Emerald,AU,-23.5333,148.1667,87.35,46,1,12.24,heavy intensity rain
1024,Brigham City,US,41.5102,-112.0155,24.8,67,0,3.44,Clear sky
1025,Saint-Louis,SN,16.3333,-15,71.38,10,0,10.69,Clear sky
1026,Upata,VE,8.0086,-62.3989,69.58,89,39,5.14,broken clouds
1027,Tautira,PF,-17.7333,-149.15,84.22,77,44,15.05,Clear sky
1028,Novoagansk,RU,61.9449,76.6625,22.15,95,100,12.3,Clear sky
1029,Fayaoue,NC,-20.65,166.5333,80.47,84,100,10.07,few clouds
1030,Llangefni,GB,53.2556,-4.3106,40.86,84,75,2.3,haze
1031,Quelimane,MZ,-17.8786,36.8883,76.95,94,40,2.3,Clear sky
1032,Qingquan,CN,30.4511,115.2559,46.85,59,8,3.6,Clear sky
1033,Blagoveshchensk,RU,50.2667,127.5333,3.81,47,0,11.18,heavy intensity rain
1034,Langarud,IR,37.197,50.1535,49.98,51,1,4.43,Clear sky
1035,Vysotskoye,RU,45.025,42.9064,40.37,83,100,6.02,Clear sky
1036,Katobu,ID,-4.9408,122.5276,89.15,55,53,7.81,broken clouds
1037,Ostersund,SE,63.1792,14.6357,23.61,93,75,17.27,Clear sky
1038,Comodoro Rivadavia,AR,-45.8667,-67.5,60.66,94,40,4.61,Clear sky
1039,Apache Junction,US,33.4151,-111.5496,47.93,23,0,1.99,few clouds
1040,Kushmurun,KZ,52.4503,64.6311,12.61,84,100,13.04,haze
1041,Solton,RU,52.8429,86.4787,5.32,98,98,1.39,Clear sky
1042,Esna,EG,25.2934,32.554,50.76,45,1,8.01,Clear sky
1043,Klaksvik,FO,62.2266,-6.589,36.52,77,97,50.06,heavy intensity rain
1044,Portobelo,PA,9.55,-79.65,76.62,87,15,10.45,Clear sky
1045,Bukama,CD,-9.2,25.85,67.46,99,100,2.06,Clear sky
1046,Sola,VU,-13.8833,167.55,81.01,78,100,15.84,broken clouds
1047,Kuito,AO,-12.3833,16.9333,58.98,97,100,2.44,Clear sky
1048,Niksar,TR,40.5917,36.9517,38.35,98,100,3.53,Clear sky
1049,La Crosse,US,43.8014,-91.2396,1.53,75,0,0,few clouds
1050,Pokhara,NP,28.2333,83.9833,52.74,82,100,2.73,haze
1051,Birin,NP,26.8865,88.0718,41,85,100,6.24,Clear sky
1052,Katangli,RU,51.7102,143.2326,7.47,93,100,17.76,Clear sky
1053,Aksu,CN,41.1231,80.2644,29.26,44,100,3.15,heavy intensity rain
1054,Limbang,MY,4.75,115,87.91,57,98,5.26,Clear sky
1055,Anadyr,RU,64.75,177.4833,12.7,67,9,33.55,Clear sky
1056,Wilmington,US,34.2257,-77.9447,66.11,85,20,10.36,broken clouds
1057,Tomakomai,JP,42.6369,141.6033,28.38,74,75,1.14,Clear sky
1058,Behbahan,IR,30.5959,50.2417,51.12,28,26,3.83,Clear sky
1059,Mogzon,RU,51.7435,111.9606,-0.35,87,77,5.28,few clouds
1060,Kousseri,CM,12.0769,15.0306,62.65,15,36,11.18,haze
1061,Mlimba,TZ,-8.8,35.8167,71.53,95,100,1.72,Clear sky
1062,Kirakira,SB,-10.4544,161.9205,80.64,83,100,10.16,Clear sky
1063,Dwarka,IN,22.2394,68.9678,70.27,44,4,4.05,heavy intensity rain
1064,Ferme-Neuve,CA,46.7001,-75.4493,4.78,86,100,8.32,Clear sky
1065,Alyangula,AU,-13.8483,136.4192,84.2,71,100,9.33,Clear sky
1066,Pangkalanbuun,ID,-2.6833,111.6167,90.46,53,81,3.11,broken clouds
1067,Utete,TZ,-7.986,38.758,73.63,97,100,0.85,Clear sky
1068,Resistencia,AR,-27.4606,-58.9839,75.18,80,0,4.61,Clear sky
1069,Calvinia,ZA,-31.4707,19.776,60.78,71,0,3.29,few clouds
1070,Awbari,LY,26.5921,12.7805,45.88,55,0,6.67,haze
1071,Dogondoutchi,NE,13.6393,4.0287,60.31,18,0,13.04,Clear sky
1072,Humacao,PR,18.1497,-65.8274,76.75,91,100,1.99,Clear sky
1073,Benguela,AO,-12.5763,13.4055,73.83,76,98,2.57,heavy intensity rain
1074,Antalaha,MG,-14.9003,50.2788,76.35,84,100,5.73,Clear sky
1075,Providencia,MX,28.7167,-111.5833,53.65,42,0,16.67,Clear sky
1076,Brandon,US,27.9378,-82.2859,69.37,86,40,1.01,broken clouds
1077,Quzhou,CN,28.9594,118.8686,39.38,98,100,1.66,Clear sky
1078,Mnogovershinnyy,RU,53.9353,139.9242,1.63,86,100,6.71,Clear sky
1079,Soloneshnoye,RU,51.6544,84.3197,13.59,81,76,3.31,few clouds
1080,Caucaia,BR,-3.7361,-38.6531,82.35,76,75,6.91,haze
1081,Xacmaz,AZ,41.4635,48.806,40.39,77,75,2.89,Clear sky
1082,Balkhash,KZ,46.844,74.9804,3.81,72,0,15.66,Clear sky
1083,Matagami,CA,49.7502,-77.6328,-29.09,75,0,0,heavy intensity rain
1084,Frolovo,RU,49.7713,43.6622,34.39,100,100,7.87,Clear sky
1085,Nizwa,OM,22.9333,57.5333,64.18,49,1,0.98,Clear sky
1086,Hastings,GB,50.8552,0.5729,49.98,81,100,23.96,broken clouds
1087,Sandpoint,US,48.2766,-116.5533,28.72,88,100,0,Clear sky
1088,Rozkishne,UA,48.5074,39.3004,31.77,95,100,9.71,Clear sky
1089,Mukhen,RU,48.1,136.1,5.31,81,99,5.17,few clouds
1090,Boissevain,CA,49.2306,-100.0559,-1.95,99,100,4.29,haze
1091,Qasigiannguit,GL,68.8193,-51.1922,19.65,95,100,1.59,Clear sky
1092,Juneau,US,58.3019,-134.4197,28.45,95,100,5.75,Clear sky
1093,Birao,CF,10.2849,22.7882,67.03,23,18,5.46,heavy intensity rain
1094,Acari,PE,-15.4311,-74.6158,72.99,75,29,3.89,Clear sky
1095,Baoqing,CN,46.3317,132.2111,8.08,71,46,11.72,Clear sky
1096,Savannah Bight,HN,16.45,-85.85,80.01,84,0,26.89,broken clouds
1097,Skiathos,GR,39.1623,23.4909,38.97,55,14,22.46,Clear sky
1098,Urengoy,RU,65.9667,78.3667,5.07,97,100,5.84,Clear sky
1099,Igarka,RU,67.4667,86.5833,0.3,96,100,11.61,few clouds
1100,Mananara,MG,-16.1667,49.7667,79.3,76,100,6.49,haze
1101,Abalak,RU,58.1286,68.5944,27.43,93,100,10.56,Clear sky
1102,Silver City,US,32.7701,-108.2803,24.67,85,75,3.44,Clear sky
1103,Gigmoto,PH,13.7796,124.39,78.17,90,100,10.45,heavy intensity rain
1104,Freeport,US,40.6576,-73.5832,52.16,86,100,8.01,Clear sky
1105,Ivanava,BY,52.1451,25.5365,22.77,98,100,5.21,Clear sky
1106,Alamosa,US,37.4695,-105.87,0.66,84,0,0,broken clouds
1107,Bali,ID,-8.5,115,81.57,71,95,6.31,Clear sky
1108,Port Hueneme,US,34.1478,-119.1951,61.32,52,0,3.44,Clear sky
1109,Tarbes,FR,43.25,0.1667,48.25,87,100,4.61,few clouds
1110,Malakal,SS,9.5334,31.6605,73.58,24,38,5.55,haze
1111,Yongan,CN,39.6957,113.6871,14.92,41,0,9.95,Clear sky
1112,Kontagora,NG,10.3999,5.4695,68.68,14,0,8.88,Clear sky
1113,Epe,NG,6.5841,3.9834,72.97,95,3,2.71,heavy intensity rain
1114,Amahai,ID,-3.3333,128.9167,88.3,56,97,3.94,Clear sky
1115,Petrovskoye,RU,57.0104,39.2693,12.25,97,100,3.4,Clear sky
1116,Bullhead City,US,35.1478,-114.5683,53.89,21,0,21.85,broken clouds
1117,Shimoda,JP,34.6667,138.95,46.76,62,100,2.77,Clear sky
1118,Ndele,CF,8.4109,20.6473,67.14,21,34,5.21,Clear sky
1119,Harindanga,IN,22.0383,88.3214,75.18,51,1,13.98,few clouds
1120,Butembo,CD,0.15,29.2833,58.12,71,89,2.46,haze
1121,Shache,CN,38.4167,77.2406,30.02,36,77,3.24,Clear sky
1122,Acajutla,SV,13.5928,-89.8275,74.8,80,2,7.94,Clear sky
1123,Ketchikan,US,55.3422,-131.6461,44.58,93,100,18.41,heavy intensity rain
1124,Papillion,US,41.1544,-96.0422,12.33,53,0,1.01,Clear sky
1125,Kuchera,IN,26.9839,73.9719,58.93,45,0,5.19,Clear sky
1126,Guerrero,MX,17.6667,-100,63.05,78,9,5.08,broken clouds
1127,Puerto Del Rosario,ES,28.5004,-13.8627,69.48,55,99,6.91,Clear sky
1128,Isla Mujeres,MX,21.2311,-86.731,78.85,84,0,13.56,Clear sky
1129,Ilebo,CD,-4.3167,20.5833,66.33,98,100,1.03,few clouds
1130,Raga,SS,8.4596,25.678,70.81,22,100,4.45,haze
1131,Islamkot,PK,24.6997,70.177,65.82,33,0,6.85,Clear sky
1132,Kodinsk,RU,58.6881,99.1844,12,94,100,5.55,Clear sky
1133,Saint-Joseph,RE,-21.3667,55.6167,79.16,88,100,27.47,heavy intensity rain
1134,Smithers,CA,54.7804,-127.1743,23.32,86,100,3.44,Clear sky
1135,Gorom-Gorom,BF,14.4439,-0.2361,63.73,16,3,12.37,Clear sky
1136,Skeldon,GY,5.8833,-57.1333,74.79,84,68,5.84,broken clouds
1137,Sena Madureira,BR,-9.0656,-68.6569,72.1,98,100,2.51,Clear sky
1138,Thonon-Les-Bains,FR,46.25,6.5,34.2,98,0,5.39,Clear sky
1139,Diu,IN,20.7141,70.9822,68.7,35,20,2.24,few clouds
1140,Purpe,RU,64.4803,76.6897,16.7,96,100,7.56,haze
1141,Lewisporte,CA,49.2499,-55.0482,38.91,97,100,8.79,Clear sky
1142,Miraflores,MX,19.2167,-98.8083,62.02,66,1,4,Clear sky
1143,Homer,US,59.6425,-151.5483,30.09,86,100,10.36,heavy intensity rain
1144,Winsum,NL,53.33,6.5208,45.99,88,100,19.35,Clear sky
1145,Rio Tercero,AR,-32.173,-64.1141,71.8,83,14,2.68,Clear sky
1146,Vuktyl,RU,63.8567,57.3094,13.87,96,100,5.79,broken clouds
1147,Xichang,CN,27.8964,102.2634,44.71,85,95,3.18,Clear sky
1148,Despotovac,RS,44.0925,21.4469,29.3,89,100,5.08,Clear sky
1149,Lakes Entrance,AU,-37.8811,147.981,70.16,58,37,9.13,few clouds
1150,Gambo,CF,4.6482,22.2633,72.95,33,100,0.98,haze
1151,Urumqi,CN,43.801,87.6005,0.55,85,75,2.24,Clear sky
1152,Pedro Juan Caballero,PY,-22.5472,-55.7333,69.49,93,100,9.62,Clear sky
1153,Ziway,ET,7.9333,38.7167,59.43,58,96,9.57,heavy intensity rain
1154,Melilla,ES,35.2937,-2.9383,61.18,33,0,5.75,Clear sky
1155,Kermanshah,IR,34.3142,47.065,40.71,67,70,8.66,Clear sky
1156,Nizhnevartovsk,RU,60.9344,76.5531,21.22,93,75,13.42,broken clouds
1157,Kalas,IN,18.1667,74.8,67.84,63,57,11.36,Clear sky
1158,Pennadam,IN,11.4,79.2333,78.55,59,10,3.47,Clear sky
1159,Barcelos,PT,41.5388,-8.6151,51.94,76,100,0.18,few clouds
1160,Terney,RU,45.0503,136.6092,14.47,55,6,9.95,haze
1161,Semey,KZ,50.4111,80.2275,-1.98,71,22,11.18,Clear sky
1162,Strelka,RU,58.0728,93.0344,15.62,94,100,6.89,Clear sky
1163,Junin,AR,-34.5838,-60.9433,67.03,90,3,7.31,heavy intensity rain
1164,Coihueco,CL,-36.6167,-71.8333,59.74,82,8,0,Clear sky
1165,Acapulco,MX,16.8634,-99.8901,76.82,78,0,4.61,Clear sky
1166,Kloulklubed,PW,7.0419,134.2556,86.5,72,24,18.79,broken clouds
1167,Port Arthur,CN,38.8,121.2667,25.02,45,98,19.37,Clear sky
1168,Chaozhou,CN,23.6651,116.6379,57.06,67,90,6.89,Clear sky
1169,Ormara,PK,25.2088,64.6357,68.05,27,0,13.33,few clouds
1170,Terrace,CA,54.5163,-128.6035,36.43,100,100,5.75,haze
1171,Karasjok,NO,69.4719,25.5112,6.91,100,97,5.97,Clear sky
1172,Chase,CA,50.8165,-119.6857,27.72,97,99,2.89,Clear sky
1173,Diapaga,BF,12.0708,1.7889,67.37,14,1,12.12,heavy intensity rain
1174,Tateyama,JP,34.9833,139.8667,46.67,75,100,6.4,Clear sky
1175,Mackenzie,CA,55.2999,-123.1698,10.62,85,100,3.44,Clear sky
1176,Besskorbnaya,RU,44.6447,41.311,34.88,99,100,8.34,broken clouds
1177,Bossangoa,CF,6.4926,17.4552,70.7,17,58,5.97,Clear sky
1178,Coromandel,BR,-18.4733,-47.2003,67.87,91,100,2.95,Clear sky
1179,Pachora,IN,20.6667,75.35,69.46,60,3,6.55,few clouds
1180,Phan Thiet,VN,10.9333,108.1,88.43,51,38,15.41,haze
1181,Kalmunai,LK,7.4167,81.8167,79.34,71,6,4.97,Clear sky
1182,Santa Marta,CO,11.2408,-74.199,83.89,65,2,20,Clear sky
1183,Tukrah,LY,32.5341,20.5791,53.69,56,33,20.27,heavy intensity rain
1184,Batticaloa,LK,7.7102,81.6924,78.44,72,4,2.21,Clear sky
1185,Naples,IT,40.8333,14.25,53.74,79,0,3.44,Clear sky
1186,Kendal,GB,54.3268,-2.7476,40.1,95,100,11.41,broken clouds
1187,Male,MV,4.1748,73.5089,81.16,73,12,8.46,Clear sky
1188,Szczytno,PL,53.5626,20.9875,31.93,100,100,5.75,Clear sky
1189,Turtas,RU,58.9417,69.1325,25.81,94,100,9.57,few clouds
1190,Astoria,US,46.1879,-123.8313,46.29,93,100,0,haze
1191,Mogadishu,SO,2.0371,45.3438,75.11,79,23,17.07,Clear sky
1192,North Branch,US,45.5113,-92.9802,1.08,70,79,4.03,Clear sky
1193,Chiniot,PK,31.72,72.9789,51.84,76,0,2.15,heavy intensity rain
1194,Grevesmuhlen,DE,53.8667,11.1833,44.71,95,100,13.42,Clear sky
1195,Ust-Maya,RU,60.4167,134.5333,-13.16,87,100,3.78,Clear sky
1196,Ust-Ishim,RU,57.6935,71.1665,25.68,94,100,10.29,broken clouds
1197,Darhan,MN,49.4867,105.9228,0.79,85,25,4.05,Clear sky
1198,Ximei,CN,24.9639,118.3794,56.93,84,100,3.53,Clear sky
1199,Perove,UA,44.9333,34.0667,32.92,95,100,7.25,few clouds
1200,Peterhead,GB,57.5058,-1.7981,36,70,12,18.52,haze
1201,Koppal,IN,15.35,76.15,73.15,49,13,10.42,Clear sky
1202,Mahabad,IR,36.7631,45.7222,29.88,84,10,8.97,Clear sky
1203,Takefu,JP,35.9039,136.1669,38.86,74,100,10.54,heavy intensity rain
1204,Tandil,AR,-37.3217,-59.1332,62.42,94,25,2.59,Clear sky
1205,Fort Nelson,CA,58.8053,-122.7002,-11.61,77,100,4.61,Clear sky
1206,Dicabisagan,PH,17.0818,122.4157,78.6,75,92,6.4,broken clouds
1207,Nueve De Julio,AR,-35.4444,-60.8831,70.72,91,0,6.73,Clear sky
1208,Santiago Del Estero,AR,-27.7951,-64.2615,78.22,70,44,7.45,Clear sky
1209,Oudtshoorn,ZA,-33.5907,22.2014,59.36,79,97,6.44,few clouds
1210,Eldorado,BR,-23.7869,-54.2836,77.09,97,100,7.7,haze
1211,Zverinogolovskoye,RU,54.4586,64.8542,19.56,84,100,15.3,Clear sky
1212,Tara,RU,56.8944,74.371,21.22,89,100,14.03,Clear sky
1213,Uspenka,UA,48.3903,39.1619,31.89,94,100,9.69,heavy intensity rain
1214,Itaueira,BR,-7.6033,-43.0256,79.61,51,98,2.59,Clear sky
1215,Sudogda,RU,55.9539,40.8629,14.56,96,100,4.52,Clear sky
1216,Matamoros,MX,25.5333,-103.25,62.71,42,0,5.75,broken clouds
1217,Lyuban,BY,52.7985,28.0048,5.04,100,96,0.58,Clear sky
1218,Shihezi,CN,44.3,86.0333,9.27,91,87,2.28,Clear sky
1219,Kuching,MY,1.55,110.3333,84.42,74,40,5.75,few clouds
1220,Sangmelima,CM,2.9333,11.9833,65.25,99,97,1.34,haze
1221,Sulangan,PH,11.1373,123.7228,77.74,82,96,15.88,Clear sky
1222,Ramotswa,BW,-24.8716,25.8699,69.42,87,56,1.92,Clear sky
1223,Surok,RU,56.4469,48.1214,18.18,89,100,9.06,heavy intensity rain
1224,Rosario,AR,-32.9468,-60.6393,72.07,93,8,1.99,Clear sky
1225,Kanker,IN,20.2719,81.4931,74.89,53,1,14.09,Clear sky
1226,Porto Torres,IT,40.835,8.3972,53.78,77,41,11.68,broken clouds
1227,Konstantinovka,RU,49.6167,127.9833,1.81,76,16,9.66,Clear sky
1228,Chicama,PE,-7.8447,-79.1469,71.69,75,66,6.04,Clear sky
1229,Tahta,EG,26.7693,31.5021,49.84,53,2,11.27,few clouds
1230,Phangnga,TH,8.4509,98.5298,89.82,47,9,6.02,haze
1231,Uvira,CD,-3.4067,29.1458,70.68,87,100,1.21,Clear sky
1232,Verkhoyansk,RU,67.5447,133.385,-28.08,97,69,1.03,Clear sky
1233,Greenville,US,35.6127,-77.3663,65.28,85,40,12.66,heavy intensity rain
1234,Berlin,DE,52.5244,13.4105,43.36,93,75,8.99,Clear sky
1235,Dehloran,IR,32.6941,47.2679,60.35,39,88,11.56,Clear sky
1236,Hueyapan,MX,18.8667,-98.6667,60.08,54,0,3.58,broken clouds
1237,Buchanan,LR,5.8808,-10.0467,77.79,85,7,2.68,Clear sky
1238,Horsham,GB,51.064,-0.3272,50.32,85,75,9.22,Clear sky
1239,Lindas,NO,60.7381,5.16,38.77,76,100,19.04,few clouds
1240,Praia Da Vitoria,PT,38.7333,-27.0667,57.45,82,20,12.12,haze
1241,Kathmandu,NP,27.7167,85.3167,48.42,93,75,10.36,Clear sky
1242,Kochevo,RU,59.5994,54.3125,-4.63,100,100,1.45,Clear sky
1243,Fort-Shevchenko,KZ,44.5086,50.263,41.94,95,100,8.46,heavy intensity rain
1244,Abhaynagar,BD,23.0129,89.4049,76.96,50,5,8.84,Clear sky
1245,Bideford,GB,51.0179,-4.2046,51.73,83,100,24.92,Clear sky
1246,Sepuka,TZ,-4.75,34.5333,60.21,93,100,3.89,broken clouds
1247,Berbera,SO,10.4396,45.0143,72.99,66,1,3.02,Clear sky
1248,Manggar,ID,-2.8833,108.2667,85.41,64,47,5.77,Clear sky
1249,Shu,KZ,43.5983,73.7614,33.67,72,5,1.68,few clouds
1250,Drayton Valley,CA,53.2168,-114.9854,-2.09,96,100,8.57,haze
1251,San Lorenzo,PY,-25.3333,-57.5333,74.59,94,100,7,Clear sky
1252,Eresos,GR,39.1667,25.9333,44.11,68,3,25.86,Clear sky
1253,Norwich,GB,52.6278,1.2983,48.47,84,75,12.66,heavy intensity rain
1254,Krasnyy Chikoy,RU,50.3643,108.7512,6.17,91,93,1.9,Clear sky
1255,Oarai,JP,36.3167,140.6,48.34,47,100,5.21,Clear sky
1256,Panaba,MX,21.2833,-88.2667,70.99,94,0,7.58,broken clouds
1257,Ankazoabo,MG,-22.2833,44.5167,76.15,69,0,5.57,Clear sky
1258,Traverse City,US,44.7631,-85.6206,10.35,72,0,4.61,Clear sky
1259,Ambilobe,MG,-13.2,49.05,77.13,90,98,7.81,few clouds
1260,Taywarah,AF,33.35,64.4167,17.82,38,6,3.47,haze
1261,Koumac,NC,-20.5667,164.2833,84.81,77,94,10.42,Clear sky
1262,Do Gonbadan,IR,30.3586,50.7981,46.49,76,40,0,Clear sky
1263,Kantang,TH,7.4054,99.5156,87.89,62,20,10.36,heavy intensity rain
1264,Pemberton,CA,50.3164,-122.8027,31.86,97,97,3.36,Clear sky
1265,Chumikan,RU,54.7183,135.315,3.04,75,100,15.5,Clear sky
1266,Ovalle,CL,-30.5983,-71.2003,67.89,64,0,3.38,broken clouds
1267,Maceio,BR,-9.6658,-35.7353,76.44,88,0,3.44,Clear sky
1268,Atocha,BO,-20.9333,-66.2333,47.12,86,56,5.3,Clear sky
1269,Whitehorse,CA,60.7161,-135.0538,-5.19,77,100,5.75,few clouds
1270,Santa Catalina,PH,9.3337,122.8637,78.84,82,100,9.69,haze
1271,Castanos,MX,26.7833,-101.4167,30.34,80,53,7.87,Clear sky
1272,Clermont,FR,49.5,2.4167,45.72,86,100,11.3,Clear sky
1273,Marau,BR,-28.4492,-52.2,70.5,78,93,8.7,heavy intensity rain
1274,Sekoma,BW,-24.4,23.8833,68.67,85,100,9.31,Clear sky
1275,Yamada,JP,39.4667,141.95,36.18,42,83,12.57,Clear sky
1276,General Cepeda,MX,25.3833,-101.45,43.12,79,23,4.79,broken clouds
1277,Dudinka,RU,69.4058,86.1778,-22.16,100,63,4.16,Clear sky
1278,Loreto,MX,22.2667,-101.9667,51.94,42,74,3.31,Clear sky
1279,Mmabatho,ZA,-25.85,25.6333,60.76,94,0,5.75,few clouds
1280,Tiznit,MA,29.5833,-9.5,61.18,26,82,7.87,haze
1281,Yertsevo,RU,60.7966,40.086,-11.7,100,100,0.25,Clear sky
1282,Salekhard,RU,66.53,66.6019,-7.96,98,100,1.72,Clear sky
1283,Corsicana,US,32.0954,-96.4689,24.51,85,100,8.01,heavy intensity rain
1284,Lilongwe,MW,-13.9669,33.7873,68.2,94,40,4.61,Clear sky
1285,Maniitsoq,GL,65.4167,-52.9,12.18,71,100,12.06,Clear sky
1286,Velsk,RU,61.0701,42.0983,-14.19,100,98,2.62,broken clouds
1287,Presidente Dutra,BR,-5.29,-44.49,72.7,94,97,3.96,Clear sky
1288,Praxedis Guerrero,MX,31.3667,-106.0167,29.28,60,13,9.04,Clear sky
1289,Oistins,BB,13.0667,-59.5333,75.29,73,40,11.5,few clouds
1290,Ulaanbaatar,MN,47.9077,106.8832,-0.27,71,0,2.24,haze
1291,Behshahr,IR,36.6923,53.5526,42.75,37,2,5.14,Clear sky
1292,Morant Bay,JM,17.8815,-76.4093,78.42,83,7,9.44,Clear sky
1293,Carroll,US,39.5501,-77.0164,57.65,88,100,4,heavy intensity rain
1294,Muisne,EC,0.6,-80.0333,76.69,85,95,7.56,Clear sky
1295,Pokrovskoye,RU,47.4157,38.8971,34.81,89,100,8.37,Clear sky
1296,Xiongzhou,CN,25.1167,114.3,48.31,69,95,6.13,broken clouds
1297,Jilin,CN,43,126,8.04,74,61,8.72,Clear sky
1298,Uba,BR,-21.12,-42.9428,73.85,84,100,2.1,Clear sky
1299,Ler,SS,8.3018,30.1418,74.95,26,42,3.91,few clouds
1300,Vestmanna,FO,62.1564,-7.1664,34.72,69,100,36.82,haze
1301,Vigrestad,NO,58.5667,5.7,40.68,75,100,12.66,Clear sky
1302,Paso De Los Toros,UY,-32.8167,-56.5167,71.22,85,98,4.94,Clear sky
1303,Jadu,LY,31.953,12.0261,43.16,56,0,7.38,heavy intensity rain
1304,Flagstaff,US,35.1981,-111.6513,24.46,35,0,1.01,Clear sky
1305,Nador,MA,35.174,-2.9287,61.05,33,0,5.75,Clear sky
1306,Dhidhdhoo,MV,6.8833,73.1,80.8,70,14,7.74,broken clouds
1307,Ayr,GB,55.4627,-4.6339,39.18,81,75,16.11,Clear sky
1308,Tevaitoa,PF,-16.7833,-151.5,81.16,71,2,15.03,Clear sky
1309,Segovia,ES,41.1667,-4,43.43,71,100,4.72,few clouds
1310,Barddhaman,IN,23.25,87.85,67.42,85,77,5.82,haze
1311,Manyana,BW,-23.4,21.7167,66.74,77,14,5.46,Clear sky
1312,Manicore,BR,-5.8092,-61.3003,72.14,99,98,0.58,Clear sky
1313,Hong Gai,VN,20.956,107.0946,62.51,59,100,3.67,heavy intensity rain
1314,South Sioux City,US,42.4739,-96.4136,8.2,46,0,5.01,Clear sky
1315,Katiola,CI,8.1333,-5.1,66.94,14,1,2.82,Clear sky
1316,Gayeri,BF,12.6497,0.4931,65.17,14,0,11.88,broken clouds
1317,Simbahan,PH,6.3032,120.5836,80.82,79,88,16.24,Clear sky
1318,Bingol,TR,38.8847,40.4939,24.39,96,100,4.05,Clear sky
1319,Goedereede,NL,51.8175,3.9806,47.98,82,100,3,few clouds
1320,Novyy Urgal,RU,51.0736,132.5642,-7.91,87,97,0.89,haze
1321,Poronaysk,RU,49.2167,143.1167,18.12,72,100,7.58,Clear sky
1322,Straumen,NO,63.8709,11.2999,37.4,92,100,8.84,Clear sky
1323,Barranca,PE,-10.75,-77.7667,70.68,80,83,6.91,heavy intensity rain
1324,Omsukchan,RU,62.5333,155.8,-7.31,74,18,9.64,Clear sky
1325,Pallasovka,RU,50.05,46.8833,29.34,94,100,7.29,Clear sky
1326,Kanniyakumari,IN,8.0833,77.5667,79.65,71,6,1.61,broken clouds
1327,Amapa,BR,1,-52,72.14,98,100,3.27,Clear sky
1328,Catumbela,AO,-12.4314,13.5472,73.87,76,99,2.66,Clear sky
1329,Rantauprapat,ID,2.1,99.8333,83.97,72,50,3.04,few clouds
1330,Tagusao,PH,9.1924,117.8141,84.29,68,7,14.72,haze
1331,Aldan,RU,58.6031,125.3894,-8.55,91,100,4.76,Clear sky
1332,Hanko,FI,59.8333,22.95,28.83,81,69,20.51,Clear sky
1333,Pemangkat,ID,1.1667,108.9667,81.79,75,100,8.03,heavy intensity rain
1334,Datong,CN,40.0936,113.2914,16.34,33,0,6.62,Clear sky
1335,Kamaishi,JP,39.2667,141.8833,32.95,49,91,13.53,Clear sky
1336,Ouadda,CF,8.0777,22.4007,66.31,25,54,5.73,broken clouds
1337,Sabinas,MX,27.85,-101.1167,34.25,58,99,19.84,Clear sky
1338,Camana,PE,-16.6228,-72.7111,71.13,82,89,7.07,Clear sky
1339,Simpang,ID,-1.2667,104.0833,89.26,55,37,5.08,few clouds
1340,Tabou,CI,4.423,-7.3528,77.47,85,13,2.1,haze
1341,Kyaikkami,MM,16.08,97.5675,81.3,43,84,5.82,Clear sky
1342,Normandin,CA,48.8333,-72.5321,-1.89,59,100,5.75,Clear sky
1343,Keshorai Patan,IN,25.3,75.9333,60.71,41,0,4.38,heavy intensity rain
1344,Yankton,US,42.8711,-97.3973,7.12,47,0,8.05,Clear sky
1345,South Lake Tahoe,US,38.9332,-119.9844,33.51,55,0,4.61,Clear sky
1346,Tutoia,BR,-2.7619,-42.2744,78.4,88,94,11.34,broken clouds
1347,Tanete,ID,-3.9443,119.7848,88.86,57,65,9.66,Clear sky
1348,Svencionys,LT,55.15,26.1667,12.99,99,91,4.52,Clear sky
1349,Todos Santos,MX,23.45,-110.2167,67.01,63,13,11.95,few clouds
1350,Kibala,TD,9.1104,18.3463,66.15,27,0,0,haze
1351,Meadow Lake,US,34.8014,-106.5436,22.12,74,19,2.73,Clear sky
1352,Pio Xii,BR,-3.8325,-45.1525,73.15,97,100,3.62,Clear sky
1353,Takapau,NZ,-40.0333,176.35,90.73,23,18,4.74,heavy intensity rain
1354,Mangrol,IN,21.1167,70.1167,67.32,37,9,3.49,Clear sky
1355,Ternate,ID,0.8,127.4,83.93,68,100,3.6,Clear sky
1356,Kresttsy,RU,58.2452,32.5165,-6.74,100,100,2.13,broken clouds
1357,Kharagpur,IN,22.3333,87.3333,72.59,71,45,9.4,Clear sky
1358,Torit,SS,4.4133,32.5678,75.4,46,98,1.43,Clear sky
1359,Manitouwadge,CA,49.1215,-85.8403,-19.48,99,17,0.83,few clouds
1360,Tessaoua,NE,13.7574,7.9874,54.16,20,0,14.03,haze
1361,Howard Springs,AU,-12.497,131.047,77.99,96,100,9.84,Clear sky
1362,Cortez,US,37.3489,-108.5859,20.16,42,0,6.91,Clear sky
1363,Umm Kaddadah,SD,13.6017,26.6876,63.39,18,2,21.72,heavy intensity rain
1364,Payo,ID,-3.7508,103.6372,81.27,82,71,3.91,Clear sky
1365,Luangwa,ZM,-15.6167,30.4167,72.27,96,98,1.21,Clear sky
1366,Elverum,NO,60.8819,11.5623,34.84,97,100,10.51,broken clouds
1367,Sal Rei,CV,16.1833,-22.9167,68.56,81,0,14.03,Clear sky
1368,Balaipungut,ID,1.05,101.2833,86.41,76,91,3.76,Clear sky
1369,Shaowu,CN,27.3409,117.4831,41.95,89,100,3.49,few clouds
1370,Solnechnyy,RU,50.7214,136.6319,2.55,91,99,2.62,haze
1371,Ceres,US,37.5949,-120.9577,51.8,63,0,0,Clear sky
1372,Seymchan,RU,62.8833,152.4333,-15.23,91,13,3.98,Clear sky
1373,Cassilandia,BR,-19.1133,-51.7342,72.5,90,100,2.53,heavy intensity rain
1374,Vallenar,CL,-28.5708,-70.7581,64.89,64,0,1.39,Clear sky
1375,Maxixe,MZ,-23.8597,35.3472,76.82,94,40,0,Clear sky
1376,Portales,US,34.1862,-103.3344,8.1,95,43,5.5,broken clouds
1377,Parasia,IN,22.2,78.7667,62.19,40,1,6.46,Clear sky
1378,Denpasar,ID,-8.65,115.2167,82.06,83,20,9.22,Clear sky
1379,La Palma,US,33.8464,-118.0467,61.99,64,20,0,few clouds
1380,Yangjiang,CN,21.85,111.9667,54.95,69,100,8.9,haze
1381,Musoma,TZ,-1.5,33.8,67.15,82,100,5.17,Clear sky
1382,Stornoway,GB,58.2093,-6.3865,35.92,86,40,5.01,Clear sky
1383,North Vanlaiphai,IN,23.1333,93.0667,63.99,38,1,2.08,heavy intensity rain
1384,Bandipur,NP,27.9333,84.4167,47.39,87,100,1.43,Clear sky
1385,Balsas,BR,-7.5325,-46.0356,75.29,77,98,1.81,Clear sky
1386,Mananjary,MG,-21.2167,48.3333,75.67,91,100,12.91,broken clouds
1387,Plast,RU,54.3691,60.8136,20.12,85,100,11.34,Clear sky
1388,Stanger,ZA,-29.3282,31.2895,73.92,93,100,12.91,Clear sky
1389,Saint-Pierre,RE,-21.3393,55.4781,80.24,84,100,20.04,few clouds
1390,Zaterechnyy,RU,44.7931,45.2097,35.85,93,100,5.12,haze
1391,Tecoanapa,MX,16.5167,-98.75,74.07,72,0,4.29,Clear sky
1392,Methoni,GR,36.8197,21.7049,46.22,59,1,6.02,Clear sky
1393,Henties Bay,NA,-22.116,14.2845,65.86,88,5,6.96,heavy intensity rain
1394,Maragogi,BR,-9.0122,-35.2225,78.12,75,99,7.85,Clear sky
1395,Shambu,ET,9.5667,37.1,54.79,58,95,1.63,Clear sky
1396,Tanout,NE,14.9709,8.8879,50.61,23,0,15.41,broken clouds
1397,Champasak,LA,14.75,106,79.68,44,34,1.7,Clear sky
1398,Sassandra,CI,4.95,-6.0833,75.43,91,4,2.53,Clear sky
1399,Belaya Gora,RU,68.5333,146.4167,-32.96,99,36,2.13,few clouds
1400,Harboore,DK,56.6175,8.1807,45.21,94,100,26.46,haze
1401,Waitati,NZ,-45.75,170.5667,50.95,97,100,3.27,Clear sky
1402,Lagos,NG,6.5833,3.75,79.12,93,2,2.39,Clear sky
1403,Dalbandin,PK,28.8947,64.4101,48.52,28,0,5.97,heavy intensity rain
1404,Qeshm,IR,26.9581,56.2719,58.89,54,0,4.85,Clear sky
1405,Grootfontein,NA,-19.5667,18.1167,67.35,70,77,4.52,Clear sky
1406,Norden,DE,53.6,7.2,44.94,91,100,20.98,broken clouds
1407,Qarqin,AF,37.4185,66.0436,48.56,41,2,21.65,Clear sky
1408,Valparaiso,CL,-33.0393,-71.6273,63.52,82,0,5.75,Clear sky
1409,Almaznyy,RU,48.0448,40.045,32.14,94,100,11.63,few clouds
1410,Ifakara,TZ,-8.1333,36.6833,71.37,96,100,1.36,haze
1411,Gari,RU,59.4307,62.3497,16.18,97,100,5.08,Clear sky
1412,Riachao,BR,-7.3619,-46.6172,74.17,78,99,1.07,Clear sky
1413,Chok Chai,TH,14.7284,102.1652,84.54,80,76,9.8,heavy intensity rain
1414,Bay Roberts,CA,47.5999,-53.2648,40.33,90,100,7,Clear sky
1415,Kalemie,CD,-5.9475,29.1947,68.77,92,100,7.81,Clear sky
1416,Tomatlan,MX,19.9333,-105.25,63.91,82,74,2.93,broken clouds
1417,Loikaw,MM,19.6742,97.2094,75.87,21,13,2.86,Clear sky
1418,Lima,PE,-12.0432,-77.0282,70.9,79,0,10.36,Clear sky
1419,Road Town,VG,18.4167,-64.6167,75.29,77,86,18.34,few clouds
1420,Sabla,NG,12.7525,4.7077,62.28,17,0,16.75,haze
1421,Medicine Hat,CA,50.0501,-110.6683,6.51,72,100,4.61,Clear sky
1422,Valreas,FR,44.3837,4.9908,45.91,87,65,3.89,Clear sky
1423,Sept-Iles,CA,50.2001,-66.3821,3.06,60,100,1.01,heavy intensity rain
1424,Andra,RU,62.5147,65.8878,17.73,97,100,0.92,Clear sky
1425,Am Timan,TD,11.0297,20.2827,68.09,13,14,9.51,Clear sky
1426,Porterville,US,36.0652,-119.0168,47.59,76,0,6.91,broken clouds
1427,Vondrozo,MG,-22.8167,47.2833,69.39,96,82,5.84,Clear sky
1428,Niquero,CU,20.0431,-77.5828,73.78,84,29,10.31,Clear sky
1429,Tiarei,PF,-17.5333,-149.3333,84.22,76,22,15.79,few clouds
1430,Trinidad,BO,-14.8333,-64.9,74.19,92,89,5.3,haze
1431,Canatlan,MX,24.5167,-104.7833,42.66,84,0,5.79,Clear sky
1432,Bondo,CD,3.8146,23.6866,71.94,45,95,2.39,Clear sky
1433,Hit,IQ,33.6416,42.8251,53.76,43,64,7.52,heavy intensity rain
1434,Whitefish,US,48.4111,-114.3376,20.37,84,100,0,Clear sky
1435,Buta,CD,2.7858,24.73,72.32,59,98,1.19,Clear sky
1436,Queimadas,BR,-10.9783,-39.6264,73.31,83,84,6.24,broken clouds
1437,Bocaiuva,BR,-17.1078,-43.815,71.31,91,100,1.97,Clear sky
1438,Cagdianao,PH,9.9211,125.6692,77.79,83,100,11.61,Clear sky
1439,Odate,JP,40.2686,140.5683,32.14,59,75,11.5,few clouds
1440,Nakhon Phanom,TH,17.3333,104.4167,79.88,44,54,8.28,haze
1441,Merauke,ID,-8.4667,140.3333,85.06,71,100,11.23,Clear sky
1442,Davila,PH,18.4726,120.5763,85.98,69,5,24.58,Clear sky
1443,Sangar,RU,63.9242,127.4739,-19.97,94,98,3.91,heavy intensity rain
1444,Udomlya,RU,57.8794,34.9925,-3.08,100,100,3.04,Clear sky
1445,Salima,MW,-13.7804,34.4587,70.14,91,88,3.31,Clear sky
1446,Marolambo,MG,-20.05,48.1167,69.89,97,100,5.32,broken clouds
1447,Det Udom,TH,14.906,105.0784,84.25,53,65,4.92,Clear sky
1448,Wamba,NG,8.9333,8.6,67.82,16,7,4.43,Clear sky
1449,Paracuru,BR,-3.41,-39.0306,82.42,84,39,7.99,few clouds
1450,Bend,US,44.0582,-121.3153,37.99,75,0,1.99,haze
1451,Yacuiba,BO,-22.038,-63.6797,76.82,71,100,1.74,Clear sky
1452,Chernoyerkovskaya,RU,45.4331,37.7686,36.1,79,100,12.33,Clear sky
1453,Kyra,RU,49.5776,111.9753,5.92,69,4,4.7,heavy intensity rain
1454,Oriximina,BR,-1.7656,-55.8661,74.12,95,98,7.02,Clear sky
1455,Bemidji,US,47.4736,-94.8803,-1.95,63,75,8.05,Clear sky
1456,Akureyri,IS,65.6835,-18.0878,22.93,86,100,5.75,broken clouds
1457,Vaitape,PF,-16.5167,-151.75,81.32,71,1,15.23,Clear sky
1458,Kenora,CA,49.8167,-94.4337,-5.82,70,100,5.75,Clear sky
1459,Fereydunshahr,IR,32.941,50.121,25.7,93,23,5.61,few clouds
1460,Gouyave,GD,12.1646,-61.7296,75.97,83,20,5.75,haze
1461,San Carlos De Bariloche,AR,-41.1456,-71.3082,60.55,51,20,2.3,Clear sky
1462,Sao Gabriel Da Cachoeira,BR,-0.1303,-67.0892,72.5,99,66,1.48,Clear sky
1463,Miles City,US,46.4083,-105.8406,18.57,62,100,10.36,heavy intensity rain
1464,Tatawin,TN,32.9297,10.4518,50.04,63,3,6.87,Clear sky
1465,Omboue,GA,-1.5746,9.2618,75.65,87,100,1.39,Clear sky
1466,Hun,LY,29.1268,15.9477,45.88,83,0,4.97,broken clouds
1467,Shahreza,IR,32.0339,51.8794,40.01,32,0,4.38,Clear sky
1468,Nizhniy Dzhengutay,RU,42.7001,47.2449,28.33,42,100,2.93,Clear sky
1469,Zaozerne,UA,45.1582,33.2787,35.94,78,100,16.67,few clouds
1470,Razgrad,BG,43.5333,26.5167,30.54,86,86,4.14,haze
1471,Abomsa,ET,9.9833,39.9833,63.1,43,38,3.65,Clear sky
1472,Alexandria,EG,31.2156,29.9553,51.03,78,66,3.06,Clear sky
1473,Yerofey Pavlovich,RU,53.9667,121.9667,6.37,53,81,8.37,heavy intensity rain
1474,Wajir,KE,1.7471,40.0573,75.63,72,93,10.96,Clear sky
1475,Reconquista,AR,-29.15,-59.65,71.73,84,9,6.87,Clear sky
1476,Balakhninskiy,RU,58.0106,114.2769,1.33,93,100,1.36,broken clouds
1477,Ebbs,AT,47.6333,12.2167,36.66,96,47,4.88,Clear sky
1478,Cervo,ES,43.6702,-7.4101,51.19,82,100,7.78,Clear sky
1479,Malanje,AO,-9.5402,16.341,61.54,97,100,1.36,few clouds
1480,Cranbrook,CA,49.4999,-115.7688,18.46,67,100,3.44,haze
1481,Oxford,GB,51.7522,-1.256,50.05,83,75,5.99,Clear sky
1482,Maryville,US,35.7565,-83.9705,64.58,94,100,1.01,Clear sky
1483,Roswell,US,34.0232,-84.3616,63.81,96,100,3,heavy intensity rain
1484,San Juan,AR,-31.5375,-68.5364,72.46,53,4,24.92,Clear sky
1485,Alugan,PH,12.2188,125.4808,75.65,85,100,9.89,Clear sky
1486,Kyaikto,MM,17.3,97.0167,84.11,21,8,1.03,broken clouds
1487,Yining,CN,29.0361,114.5636,46.42,66,59,2.93,Clear sky
1488,Agadez,NE,19.75,10.25,47.53,34,0,9.08,Clear sky
1489,Sompeta,IN,18.9333,84.6,77.45,65,71,13.4,few clouds
1490,Iranshahr,IR,27.2025,60.6848,52.14,37,0,6.91,haze
1491,Lakatoro,VU,-16.0999,167.4164,76.91,96,100,10.27,Clear sky
1492,Mahendragarh,IN,28.2833,76.15,54.68,78,97,10.04,Clear sky
1493,Kobyli,CZ,48.9329,16.8916,37.98,86,99,6.38,heavy intensity rain
1494,Ziro,IN,27.6333,93.8333,43.54,62,78,3,Clear sky
1495,Bismil,TR,37.8486,40.6658,46.02,94,100,7.31,Clear sky
1496,Blyznyuky,UA,48.8578,36.5551,26.65,96,100,7.54,broken clouds
1497,Bicester,GB,51.9,-1.1536,50,86,100,11.01,Clear sky
1498,Le Mee-Sur-Seine,FR,48.5316,2.6283,45.07,98,100,11.5,Clear sky
1499,Makhinjauri,GE,41.6739,41.694,49.86,81,75,14.97,few clouds
1500,Tila,MX,17.4,-92.4833,69.4,93,5,3.18,haze
1501,Preobrazheniye,RU,42.9019,133.9064,17.42,42,4,9.04,Clear sky
1502,Felanitx,ES,39.4696,3.1483,50.45,81,100,3.42,Clear sky
1503,Bubaque,GW,11.2833,-15.8333,77.02,71,0,8.81,heavy intensity rain
1504,Sobolevo,RU,54.4299,31.8996,3.9,100,94,6.55,Clear sky
1505,Tynda,RU,55.1667,124.7167,-1.59,78,100,8.66,Clear sky
1506,Penzance,GB,50.1186,-5.5371,52.81,84,98,29.3,broken clouds
1507,Kupang,ID,-10.1667,123.5833,81.54,82,76,11.36,Clear sky
1508,Port Hedland,AU,-20.3167,118.5667,96.85,41,83,17.27,Clear sky
1509,Yatou,CN,37.15,122.3833,31.84,48,69,13.04,few clouds
1510,Yuzhnyy,RU,53.2542,83.6936,3.58,85,40,2.24,haze
1511,Alekseyevsk,RU,57.8406,108.3492,11.52,93,100,9.26,Clear sky
1512,Uige,AO,-7.6087,15.0613,64.78,97,100,2.15,Clear sky
1513,Bongaree,AU,-27.0797,153.1586,81.3,68,43,25.72,heavy intensity rain
1514,Kamiiso,JP,41.8167,140.65,28.78,74,75,17.27,Clear sky
1515,Mae Hong Son,TH,19.3003,97.9685,71.74,46,20,1.14,Clear sky
1516,Marawi,PH,7.9986,124.2928,71.65,85,100,2.17,broken clouds
1517,Siderno,IT,38.2779,16.302,51.19,75,68,7.81,Clear sky
1518,Leninskoye,KZ,41.7589,69.3864,37.33,29,0,3.47,Clear sky
1519,Montevideo,UY,-34.8335,-56.1674,73.11,88,100,0,few clouds
1520,Sawtell,AU,-30.3833,153.1,75.52,77,75,25.32,haze
1521,Abeche,TD,13.8292,20.8324,61.9,14,6,9.42,Clear sky
1522,Wau,SS,7.7029,27.9953,74.71,25,91,3.96,Clear sky
1523,Shubarshi,KZ,48.5872,57.1869,21.99,83,100,15.28,heavy intensity rain
1524,Mujiayingzi,CN,42.1167,118.7833,13.01,36,0,14.43,Clear sky
1525,Tigre,AR,-34.426,-58.5796,72.23,90,20,4.61,Clear sky
1526,Arona,ES,28.0996,-16.681,65.91,58,0,2.3,broken clouds
1527,Bergen,NO,60.392,5.328,41.65,84,40,11.5,Clear sky
1528,Nova Olinda Do Norte,BR,-3.8881,-59.0942,72.88,98,84,0.74,Clear sky
1529,Batangafo,CF,7.3008,18.2833,67.8,18,30,4.79,few clouds
1530,Perevolotskiy,RU,51.8763,54.1938,21,92,100,9.46,haze
1531,Boguchany,RU,58.3814,97.4531,13.84,94,100,6.85,Clear sky
1532,Binzhou,CN,37.3667,118.0167,38.26,23,15,12.35,Clear sky
1533,Blythe,US,33.6103,-114.5964,54.05,16,0,14.97,heavy intensity rain
1534,Shelby,US,35.2001,-89.8668,27.36,94,100,10.36,Clear sky
1535,Kingman,US,35.1894,-114.053,44.08,25,0,5.99,Clear sky
1536,Arrecife,ES,28.963,-13.5477,69.78,60,0,8.05,broken clouds
1537,Makhachkala,RU,42.9764,47.5024,35.58,84,100,8.43,Clear sky
1538,Mosquera,CO,4.7059,-74.2302,48.29,93,95,2.3,Clear sky
1539,Hudiksvall,SE,61.729,17.1036,30.06,96,100,15.28,few clouds
1540,Polunochnoye,RU,60.8697,60.4153,-0.76,99,95,3.67,haze
1541,Douglas,US,41.3,-96.167,10.89,54,0,0,Clear sky
1542,Shar,KZ,49.5886,81.0453,-0.98,89,17,7.47,Clear sky
1543,Xiuyan,CN,40.2928,123.2744,17.26,44,3,13.69,heavy intensity rain
1544,Apex,US,35.7327,-78.8503,63.57,87,100,4,Clear sky
1545,Kholmogory,RU,64.2229,41.656,-0.29,100,91,1.79,Clear sky
1546,Hasanabad,IR,36.5465,61.0543,55.62,35,40,13.8,broken clouds
1547,Canberra,AU,-35.2835,149.1281,71.28,54,100,14.97,Clear sky
1548,Kostomuksha,RU,64.571,30.5767,-6.93,100,80,2.62,Clear sky
1549,Gladenbach,DE,50.7667,8.5667,42.62,94,100,7.56,few clouds
1550,Nanchang,CN,28.6833,115.8833,43.21,75,100,6.15,haze
1551,Turukhansk,RU,65.8167,87.9833,7.43,95,99,12.24,Clear sky
1552,Conceicao Da Barra,BR,-18.5933,-39.7322,75.04,95,100,3.71,Clear sky
1553,Lithgow,AU,-33.4833,150.15,68.09,64,54,12.55,heavy intensity rain
1554,Zhongshu,CN,24.5167,103.7667,43.68,87,100,4.27,Clear sky
1555,Milkovo,RU,54.7167,158.6167,21.11,88,100,12.66,Clear sky
1556,Mitsamiouli,KM,-11.3847,43.2844,82.69,83,40,9.22,broken clouds
1557,Puerto Varas,CL,-41.3195,-72.9854,60.85,100,100,5.75,Clear sky
1558,Oltu,TR,40.5498,42.0013,24.85,88,100,4.79,Clear sky
1559,Farmington,US,36.7281,-108.2187,21.88,48,0,3.44,few clouds
1560,Houma,US,29.5958,-90.7195,46.4,88,100,8.99,haze
1561,Boueni,YT,-12.9025,45.0761,82.38,76,97,16.49,Clear sky
1562,Anloga,GH,5.7947,0.8973,79.02,80,0,6.11,Clear sky
1563,Yarada,IN,17.65,83.2667,77.32,73,40,4.61,heavy intensity rain
1564,Ulaangom,MN,49.9811,92.0667,-14.87,91,18,2.06,Clear sky
1565,Toktogul,KG,41.8708,72.9402,22.15,69,14,2.8,Clear sky
1566,Zhanakorgan,KZ,43.9098,67.2495,29.43,69,12,6.26,broken clouds
1567,San Jeronimo,PE,-11.9472,-75.2829,51.73,79,100,3.78,Clear sky
1568,Ardabil,IR,38.2498,48.2933,36.95,60,40,28.77,Clear sky
1569,Rabaul,PG,-4.1967,152.1721,83.75,72,79,16.26,few clouds
1570,Kondinskoye,RU,59.6481,67.41,23.7,95,100,9.33,haze
1571,Havre,FR,49.5833,0.3333,46.44,87,100,14.97,Clear sky
1572,Bagotville,AU,-28.9833,153.4167,77.02,89,64,21.81,Clear sky
1573,Corning,US,42.1428,-77.0547,24.85,90,100,6.91,heavy intensity rain
1574,Akcakoca,TR,41.0866,31.1162,39.7,80,100,10.6,Clear sky
1575,Tashla,RU,51.7716,52.7427,25.3,92,100,11.83,Clear sky
1576,Miri,MY,4.4148,114.0089,87.94,70,40,5.75,broken clouds
1577,Orlik,RU,52.5178,99.825,-5.37,89,62,1.25,Clear sky
1578,Berezovyy,RU,51.6667,135.7,5.68,85,100,1.32,Clear sky
1579,Verkhoshizhemye,RU,58.011,49.1038,7.68,99,100,4.74,few clouds
1580,Manta,EC,-0.95,-80.7333,76.78,83,40,3.44,haze
1581,Port Moresby,PG,-9.4431,147.1797,92.62,49,20,11.5,Clear sky
1582,Marquette,US,46.5333,-87.6335,6.33,73,95,2.95,Clear sky
1583,Christchurch,NZ,-43.5333,172.6333,62.94,89,100,1.01,heavy intensity rain
1584,Taree,AU,-31.9,152.4667,75.06,68,75,10.36,Clear sky
1585,North Bend,US,43.4065,-124.2243,45.07,99,20,8.05,Clear sky
1586,Warrnambool,AU,-38.3833,142.4833,72.81,70,30,16.91,broken clouds
1587,Halifax,CA,44.6453,-63.5724,40.89,97,100,1.99,Clear sky
1588,Borovskoy,KZ,53.8,64.15,18.88,82,100,14.43,Clear sky
1589,Banjarmasin,ID,-3.3244,114.591,87.94,58,100,4.29,few clouds
1590,Lambare,PY,-25.3468,-57.6065,75.04,94,100,6.91,haze
1591,Cabot,US,34.9745,-92.0165,26.65,75,100,4.61,Clear sky
1592,El Tocuyo,VE,9.7873,-69.7937,73.06,81,97,1.3,Clear sky
1593,Chifeng,CN,42.2683,118.9636,14.63,34,0,17.07,heavy intensity rain
1594,Fergus Falls,US,46.283,-96.0776,-2.81,74,75,14.97,Clear sky
1595,Alekseyevka,RU,50.6309,38.6903,23.81,97,100,6.62,Clear sky
1596,Lerwick,GB,60.1545,-1.1494,39.2,65,83,34.2,broken clouds
1597,Roebourne,AU,-20.7833,117.1333,93.94,42,61,11.23,Clear sky
1598,Forestville,US,38.8451,-76.875,60.22,88,100,21.85,Clear sky
1599,Grants,US,35.1473,-107.8514,1.63,85,0,3.44,few clouds
1600,Mahajanga,MG,-15.7167,46.3167,80.62,83,20,6.91,haze
1601,Andros Town,BS,24.7,-77.7667,67.96,69,20,20.18,Clear sky
1602,Gaozhou,CN,21.9392,110.8461,55.62,70,100,7.78,Clear sky
1603,Genhe,CN,50.7833,121.5167,4.57,57,52,10.27,heavy intensity rain
1604,Biak,ID,-0.9131,122.8766,85.24,60,99,1.07,Clear sky
1605,Bama,NG,11.5221,13.6856,60.24,51,74,5.26,Clear sky
1606,Marrakesh,MA,31.6315,-8.0083,57.27,47,0,4.61,broken clouds
1607,Garoua,CM,9.3,13.4,66.42,20,69,2.33,Clear sky
1608,Marabba,SD,12.35,32.1833,71.49,17,33,16.51,Clear sky
1609,Caledonia,US,42.8078,-87.9242,17.01,71,100,1.01,few clouds
1610,Languyan,PH,5.2618,120.0807,84.52,62,40,8.05,haze
1611,Nyanza,RW,-2.3519,29.7509,60.78,90,100,2.06,Clear sky
1612,Kisanga,TZ,-7.4362,37.7034,73.49,96,100,0.81,Clear sky
1613,Mercedes,AR,-34.6515,-59.4307,70.18,94,8,6.2,heavy intensity rain
1614,Wonthaggi,AU,-38.6044,145.5913,76.05,57,5,16.15,Clear sky
1615,Ivybridge,GB,50.3904,-3.9191,51.84,90,99,24.16,Clear sky
1616,Valley City,US,46.9233,-98.0032,4.19,78,100,14.97,broken clouds
1617,Teeli,RU,51.0333,90.2333,-8.79,92,32,2.24,Clear sky
1618,Marzuq,YE,14.4,46.4667,61.02,27,10,2.33,Clear sky
1619,Soderhamn,SE,61.3037,17.0592,31.39,95,100,12.97,few clouds
1620,Blytheville,US,35.9273,-89.919,26.65,85,100,18.01,haze
1621,Znamenskoye,RU,57.1281,73.8282,22.68,94,100,13.33,Clear sky
1622,Iquique,CL,-20.2208,-70.1431,66.24,74,38,0.25,Clear sky
1623,Xai-Xai,MZ,-25.0519,33.6442,75.72,85,0,3.44,heavy intensity rain
1624,Shawinigan,CA,46.5668,-72.7491,10.89,72,100,8.05,Clear sky
1625,Hanzhong,CN,33.0728,107.0303,45.54,51,25,2.66,Clear sky
1626,Bonthe,SL,7.5264,-12.505,73.58,93,2,4.65,broken clouds
1627,Pringsewu,ID,-5.3582,104.9744,84.92,70,73,5.14,Clear sky
1628,Noshiro,JP,40.2039,140.0242,32.94,61,100,19.51,Clear sky
1629,Tefe,BR,-3.3542,-64.7114,73.24,96,90,0.76,few clouds
1630,Ruteng,ID,-8.6136,120.4721,73.2,72,48,5.35,haze
1631,Mazagao,BR,-0.115,-51.2894,78.85,98,100,2.84,Clear sky
1632,Iwanai,JP,42.9744,140.5089,24.01,89,100,14.92,Clear sky
1633,Rosario Do Sul,BR,-30.2583,-54.9142,70.03,95,100,7.63,heavy intensity rain
1634,Kristianstad,SE,56.0313,14.1524,43.18,97,100,1.99,Clear sky
1635,Altay,CN,47.8667,88.1167,9.93,68,5,4.12,Clear sky
1636,Shenzhen,CN,22.5455,114.0683,63.07,81,24,8.9,broken clouds
1637,Lonar,IN,19.9833,76.5333,70.38,36,58,10.76,Clear sky
1638,Volksrust,ZA,-27.3654,29.8818,62.49,96,81,5.37,Clear sky
1639,Balanacan,PH,13.5289,121.8677,83.14,82,98,18.54,few clouds
1640,Yendi,GH,9.4427,-0.0099,71.13,13,1,6.49,haze
1641,Xinyu,CN,27.8043,114.9334,46.63,66,97,5.75,Clear sky
1642,Ozinki,RU,51.1786,49.6769,27.64,95,100,14.52,Clear sky
1643,Hulan Ergi,CN,47.2042,123.6333,8.89,64,1,9.48,heavy intensity rain
1644,Presidencia Roque Saenz Pena,AR,-26.7852,-60.4388,73.09,85,28,6.22,Clear sky
1645,Yuci,CN,37.6803,112.7319,31.75,23,0,8.95,Clear sky
1646,Sholapur,IN,17.6833,75.9167,73.76,39,19,10.6,broken clouds
